,price_€,building_fees_month,n_rooms,surface_sqm,n_bathrooms,floor,floor_2,tot_floors,parking,year_construction,status,heating,energy_efficiency,city,neighborhood,adress,latitude,longitude
0, 630.000,67,3,105,2,2,2,3,0,1950,Buono,Autonomo,G,Milano,Isola,"Via Carmagnola, 3",45.4863,9.1866000000000003
1, 320.000,133,2,57,1,1,1,7,0,1950,Ottimo,Centralizzato,G,Milano,Città Studi,"Via Giovanni Pacini, 67",45.484299999999998,9.2347000000000001
2, 330.000,150,3,60,1,2,2,3,0,1970,Nuovo,Centralizzato,D,Milano,San Siro,Via Federico Tesio,45.479599999999998,9.1173999999999999
3, 840.000,285,4,135,2,2,2,8,1,1970,Ristrutturare,Centralizzato,G,Milano,De Angeli,Piazza Ernesto De Angeli,45.4666,9.1494999999999997
4, 370.000,200,4,95,1,2,2,7,0,1965,Buono,Centralizzato,G,Milano,Primaticcio,"Via delle Genziane, 7",45.452800000000003,9.1259800000000002
5, 1.750.000,730,,260,3,2,2,7,1,1928,Ottimo,Centralizzato,F,Milano,Amendola - Buonarroti,via Domenichino 1,45.473700000000001,9.1506699999999999
6, 385.000,160,3,92,1,R,,5,0,1950,Buono,Centralizzato,G,Milano,Città Studi,Via garofalo 22,45.4801,9.2195999999999998
7, 690.000,200,3,100,2,5,5,7,0,1950,Ristrutturare,Centralizzato,G,Milano,Ticinese,Viale Gian Galeazzo,45.4527,9.1829000000000001
8, 145.000,80,1,45,1,1,1,2,0,1950,Ottimo,Centralizzato,G,Milano,Rogoredo,"Via Paolo Pallia, 5",45.436399999999999,9.2337000000000007
9, 348.000,75,2,50,1,4,4,5,0,1900,Ottimo,Autonomo,F,Milano,Porta Venezia,Via Panfilo Castaldi,45.476700000000001,9.2028999999999996
10, 388.000,60,2,65,1,T,,5,0,1900,Ottimo,Autonomo,E,Milano,Porta Venezia,Via Lecco,45.476399999999998,9.2037999999999993
11, 450.000,120,3,80,1,6,6,6,0,1900,Buono,Autonomo,F,Milano,Porta Venezia,Via Panfilo Castaldi,45.476199999999999,9.2041000000000004
12, 448.000,250,3,98,1,R,,8,0,1940,Buono,Centralizzato,G,Milano,Repubblica,Via Camillo Finocchiaro Aprile,45.478200000000001,9.2011000000000003
13, 800.000,416,4,110,2,4,4,7,2,2011,Ottimo,Autonomo,A+,Milano,Isola,"VIA TIMAVO, 32",45.490299999999998,9.1984999999999992
14, 460.000,75,3,86,1,1,1,2,0,1930,Buono,Autonomo,F,Milano,Città Studi,via Lomonaco,45.483199999999997,9.2228100000000008
15, 395.000,250,3,90,1,2,2,5,0,1960,Ristrutturare,Centralizzato,G,Milano,Città Studi,via pacini 57,45.483800000000002,9.2331199999999995
16, 170.000,143,2,75,1,1,1,5,0,1970,Buono,Centralizzato,G,Milano,Ponte Nuovo,"Via del Ricordo, 18",45.510599999999997,9.2438000000000002
17, 950.000,250,5,143,2,T,,4,0,1930,Ottimo,Autonomo,G,Milano,Vercelli - Wagner,"Via Andrea Verga, 20",45.462299999999999,9.1598000000000006
18, 510.000,200,4,130,2,5,5,8,1,1985,Ottimo,Autonomo,D,Milano,Chiesa Rossa,"Via Giovanni Treccani degli Alfieri, 14",45.432000000000002,9.1859999999999999
19, 450.000,200,3,90,1,R,,7,0,1900,Ottimo,Centralizzato,F,Milano,Solari,via bragadino,45.4587,9.1677599999999995
20, 310.000,170,2,46,1,4,4,5,0,1970,Ottimo,Centralizzato,G,Milano,Washington,via Giasone del Maino,45.462600000000002,9.1534899999999997
21, 650.000,290,3,130,2,1,1,8,0,1950,Ottimo,Centralizzato,,Milano,Monte Rosa - Lotto,via Veniero 2,45.4831,9.1475799999999996
22, 619.000,200,3,180,2,S,,5,0,1950,Ottimo,Centralizzato,D,Milano,Monte Rosa - Lotto,via Via Sebastiano del Piombo 15,45.477200000000003,9.1488600000000009
23, 165.000,30,2,55,1,R,,1,0,1960,Ottimo,Autonomo,E,Milano,Quarto Cagnino,"Via Fratelli Zoia, 7",45.476900000000001,9.1084999999999994
24, 148.000,60,2,45,1,3,3,3,0,1940,Ottimo,Autonomo,G,Milano,Parco Trotter,"Via Angelo Mosso, 6",45.494300000000003,9.2268000000000008
25, 135.000,130,3,90,1,2,2,4,0,1967,Buono,Centralizzato,G,Milano,Roserio,Via Val Lagarina,45.519500000000001,9.1292000000000009
26, 164.000,50,2,40,1,1,1,6,1,1960,Nuovo,Autonomo,G,Milano,Parco Trotter,"Via Padova, 104",45.494900000000001,9.2286000000000001
27, 1.480.000,750,4,197,3,R,,4,0,1900,Ristrutturare,Centralizzato,G,Milano,Ticinese,Corso Italia,45.452599999999997,9.1869999999999994
28, 65.000,33,1,16,,,4,4,0,1920,Ristrutturare,,G,Milano,Martini - Insubria,Via FARSAGLIA,45.453000000000003,9.2185799999999993
29, 540.000,100,2,85,1,6,6,6,0,1970,Ottimo,Autonomo,F,Milano,Porta Romana - Medaglie d'Oro,Viale Umbria,45.450800000000001,9.2127999999999997
30, 172.000,50,2,40,1,1,1,6,1,1960,Nuovo,Autonomo,G,Milano,Parco Trotter,"Via Padova, 104",45.494900000000001,9.2286000000000001
31, 165.000,130,2,55,1,R,,6,0,1940,Buono,Centralizzato,G,Milano,Certosa,"Piazza Pompeo Castelli, 3",45.498699999999999,9.1501999999999999
32, 599.000,200,3,90,2,5,5,7,0,1965,Ottimo,,E,Milano,Zara,"Viale Stelvio, 18",45.493200000000002,9.1912000000000003
33, 210.000,150,2,80,1,3,3,3,1,2009,Buono,Centralizzato,D,Milano,Muggiano,"Via Giuseppe Monti, 6",45.4497,9.0701999999999998
34, 158.000,125,2,60,1,4,4,4,0,1960,Ottimo,Centralizzato,G,Milano,Bovisa,"Via Brivio, 6",45.503,9.1439000000000004
35, 290.000,85,2,62,1,1,1,5,0,2013,Ottimo,Autonomo,A,Milano,Vigentino - Fatima,"Via Erice, 8B",45.430300000000003,9.1979000000000006
36, 220.000,116,2,52,1,6,6,8,0,1970,Ottimo,Centralizzato,G,Milano,Barona,Via Lodovico il Moro,45.4467,9.1515000000000004
37, 319.000,200,3,110,2,5,5,5,1,2005,Ottimo,Autonomo,D,Milano,Ponte Lambro,"Via Carlo Parea, 20/15",45.442900000000002,9.2629000000000001
38, 139.000,67,1,35,1,1,1,5,0,1970,Buono,Centralizzato,G,Milano,Cermenate - Abbiategrasso,"Viale Giovanni da Cermenate, 24",45.4373,9.1789000000000005
39, 695.000,210,2,100,1,3,3,4,0,1927,Ottimo,Centralizzato,E,Milano,Navigli - Darsena,"Via Ambrogio da Fossano Bergognone, 65",45.450800000000001,9.1660000000000004
40, 210.000,75,2,65,1,2,2,3,0,1930,Buono,Autonomo,G,Milano,Bovisa,Via Bovisasca,45.504600000000003,9.1603999999999992
41, 170.000,100,3,60,1,2,2,3,0,1930,Buono,Autonomo,G,Milano,Vigentino - Fatima,"Via Giuseppe Ripamonti, 216",45.430300000000003,9.2019000000000002
42, 360.000,190,3,82,2,1,1,6,0,1964,Ottimo,Centralizzato,E,Milano,Pasteur,"Viale Monza, 61",45.492699999999999,9.2184000000000008
43, 299.000,70,1,32,1,1,1,5,0,1900,Nuovo,Centralizzato,F,Milano,Isola,Via Pietro Borsieri 29,45.488599999999998,9.1888000000000005
44, 319.000,200,3,80,1,2,2,4,0,1960,Ottimo,Centralizzato,F,Milano,Argonne - Corsica,Via Lomellina,45.462600000000002,9.2302
45, 895.000,200,4,120,2,1,1,2,0,1800,Ottimo,Autonomo,E,Milano,Carrobbio,Corso di Porta Ticinese,45.4587,9.1811000000000007
46, 435.000,165,3,130,2,7,7,7,1,1995,Buono,Autonomo,G,Milano,Gratosoglio,"via sanvenero gustavo rosselli, 1",45.416400000000003,9.1799999999999997
47, 480.000,150,2,80,1,1,1,4,0,1920,Ottimo,Centralizzato,F,Milano,Paolo Sarpi,Via Paolo Sarpi,45.481499999999997,9.1774000000000004
48, 1.550.000,300,4,180,2,2,2,4,1,1930,Ottimo,Autonomo,C,Milano,Arena,Piazza Lega Lombarda,45.477400000000003,9.1804000000000006
49, 599.000,200,3,90,2,5,5,7,0,1965,Ottimo,Centralizzato,E,Milano,Zara,"Viale Stelvio, 18",45.493200000000002,9.1912000000000003
50, 299.000,90,1,44,1,5,5,6,0,2022,Nuovo,Autonomo,A+,Milano,Plebisciti - Susa,"Via Giuseppe Compagnoni, 12",45.464599999999997,9.2216000000000005
51, 290.000,90,1,44,1,3,3,6,0,2022,Nuovo,Autonomo,A+,Milano,Plebisciti - Susa,"Via Giuseppe Compagnoni, 12",45.464599999999997,9.2216000000000005
52, 250.000,50,2,56,1,T,,2,1,2021,Nuovo,Centralizzato,B,Milano,Ripamonti,via Verro 43,45.438400000000001,9.1927699999999994
53, 210.000,60,2,55,1,2,2,5,1,2006,Buono,Autonomo,D,Milano,Lambrate,via saccardo 1,45.481999999999999,9.2393199999999993
54, 120.000,60,2,63,1,T,,2,0,1930,Ristrutturare,Centralizzato,B,Milano,Villa San Giovanni,viale Monza 355,45.521999999999998,9.22729
55, 295.000,117,3,105,2,7,7,8,1,1980,Ottimo,Autonomo,G,Milano,Vigentino - Fatima,"Via Paolo Mezzanotte, 4",45.425199999999997,9.2106999999999992
56, 1.250.000,500,5,160,2,5,5,9,0,1950,Ottimo,Centralizzato,E,Milano,Repubblica,"Piazza Repubblica, 11",45.479199999999999,9.1958300000000008
57, 228.000,180,3,91,2,T - 9,,16,0,1991,Ottimo,Centralizzato,F,Milano,Bisceglie,"Via Benozzo Gozzoli, 160",45.447000000000003,9.0997000000000003
58,"da  285.000,00",,2,59,1,1,,5,0,1910,Buono,Centralizzato,G,Milano,Corso San Gottardo,"Via Pietro Teulié, 20",45.450038910000004,9.1858997299999992
59, 1.100.000,308,4,174,2,2,2,4,0,1900,Ottimo,Centralizzato,F,Milano,Piave - Tricolore,Piazza Santa Maria del Suffragio,45.462499999999999,9.2113999999999994
60, 725.000,275,3,130,2,,,7,1,1968,Ottimo,Centralizzato,F,Milano,Solari,"Via Bergognone, 31",45.453699999999998,9.1641499999999994
61, 290.000,130,2,45,1,T,,4,0,1930,Ottimo,Centralizzato,E,Milano,Argonne - Corsica,Via Capolago,45.4666,9.2291000000000007
62, 590.000,208,3,95,2,4,4,5,1,2004,Ottimo,Centralizzato,E,Milano,Ripamonti,"Via Giovanni Spadolini, 10",45.442799999999998,9.1923999999999992
63,"da  262.500,00",,2,53,1,1,1,5,0,1900,Buono,Centralizzato,G,Milano,Navigli - Darsena,"Via Vigevano, 45",45.453079219999999,9.1704998
64, 470.000,,2,79,1,1,1,6,0,2022,Nuovo,Autonomo,A+,Milano,Plebisciti - Susa,"Via Giuseppe Compagnoni, 12",45.464599999999997,9.2216000000000005
65, 650.000,200,2,60,1,5,5,6,0,1970,Ottimo,Centralizzato,E,Milano,Moscova,Largo La Foppa,45.478299999999997,9.1851000000000003
66, 1.600.000,,4,127,2,3,3,6,1,1947,Ottimo,Centralizzato,G,Milano,Duomo,Via Cusani,45.468699999999998,9.1841000000000008
67, 510.000,200,5,191,2,T,,5,2,2000,Ottimo,Autonomo,G,Milano,Greco - Segnano,"Via Roberto Cozzi, 10",45.508000000000003,9.2082999999999995
68, 1.000.000,250,5,250,2,7,7,7,1,2008,Ottimo,Centralizzato,C,Milano,Santa Giulia,via Manzu 1,45.436900000000001,9.2399000000000004
69, 1.900.000,550,5,335,3+,3,3,3,2,1972,Buono,Centralizzato,G,Milano,Maggiolina,Via Tullo Morgagni,45.500500000000002,9.2004999999999999
70, 1.900.000,550,5,335,3+,3,3,3,2,1972,Buono,Centralizzato,G,Milano,Maggiolina,Via Tullo Morgagni,45.500500000000002,9.2004999999999999
71, 650.000,300,5,160,3,T,,1,0,1950,Buono,Autonomo,,Milano,Ascanio Sforza,Via Cardinale Ascanio Sforza,45.448999999999998,9.1774000000000004
72, 450.000,117,2,65,1,5,5,5,0,1960,Ottimo,Autonomo,G,Milano,Navigli - Darsena,corso Cristoforo Colombo 3,45.454900000000002,9.1723700000000008
73, 224.000,100,3,90,1,4,4,4,0,1955,Buono,Centralizzato,G,Milano,Viale Ungheria - Mecenate,Via Mecenate,45.452100000000002,9.2492999999999999
74, 1.100.000,200,3,110,1,4,4,7,1,1960,Buono,Centralizzato,E,Milano,Moscova,"Corso Giuseppe Garibaldi, 64",45.475999999999999,9.1839999999999993
75, 310.000,215,4,130,2,7,7,8,0,1970,Buono,Centralizzato,G,Milano,Bisceglie,"Via Viterbo, 41",45.455800000000004,9.1058000000000003
76, 430.000,150,5,190,2,2,2,3,1,1800,Buono,Autonomo,E,Milano,Baggio,"Via Antonio Maria Ceriani, 28",45.462200000000003,9.0889000000000006
77, 790.000,300,3,140,2,4,4,8,1,1970,Ottimo,Centralizzato,G,Milano,Gambara,"Via Pietro Rubens, 23",45.466799999999999,9.1431000000000004
78, 369.000,225,3,93,1,8,8,,0,1970,Buono,Centralizzato,G,Milano,Villa San Giovanni,Viale Monza 355,45.521900000000002,9.2270199999999996
79, 785.000,275,3,115,2,2,2,4,0,1930,Ottimo,Centralizzato,E,Milano,Porta Venezia,"Via Alessandro Tadino, 11",45.476799999999997,9.2057000000000002
80, 680.000,1,3,90,2,3,3,4,0,1900,Buono,Autonomo,G,Milano,Sempione,via Castelvetro,45.483899999999998,9.1632099999999994
81, 165.000,50,2,50,1,1,1,3,0,1940,Buono,Autonomo,G,Milano,Rubattino,"Via San Faustino, 72",45.476799999999997,9.2426999999999992
82, 420.000,117,3,90,2,5,5,5,1,,Ottimo,Centralizzato,A,Milano,Vigentino - Fatima,"Via Erice, 8",45.430500000000002,9.1986000000000008
83, 785.000,165,3,106,2,1,1,4,0,2020,Nuovo,Centralizzato,A,Milano,Sempione,"Via Giovanni Prati, 6",45.478700000000003,9.1620000000000008
84, 620.000,165,3,66,2,4,4,4,0,1920,Nuovo,Centralizzato,A1,Milano,Vercelli - Wagner,"Via Marghera, 2",45.467700000000001,9.1546000000000003
85, 415.000,100,2,65,1,T,,4,0,2020,Nuovo,Centralizzato,A1,Milano,Sempione,"Via Giovanni Prati, 6",45.478700000000003,9.1620000000000008
86, 730.000,225,3,127,1,R,,4,0,1930,Ristrutturare,Centralizzato,E,Milano,Arco della Pace,"Via Giuseppe Francesco Piermarini, 8",45.476199999999999,9.1702999999999992
87, 620.000,100,3,80,2,T,,4,0,2020,Nuovo,Centralizzato,A1,Milano,Sempione,"Via Giovanni Prati, 6",45.478700000000003,9.1620000000000008
88, 1.320.000,165,4,156,2,4,4,4,0,2020,Nuovo,Centralizzato,A1,Milano,Sempione,"Via Giovanni Prati, 6",45.478700000000003,9.1620000000000008
89, 815.000,165,3,106,2,2,2,4,0,2020,Nuovo,Centralizzato,A1,Milano,Sempione,"Via Giovanni Prati, 6",45.478700000000003,9.1620000000000008
90, 1.320.000,165,4,156,2,4,4,4,0,2020,Nuovo,Centralizzato,A1,Milano,Sempione,"Via Giovanni Prati, 6",45.478700000000003,9.1620000000000008
91, 2.200.000,340,5,300,3,5,5,5,0,2012,Nuovo,Centralizzato,A1,Milano,Vercelli - Wagner,"Via Raffaello Sanzio, 23",45.468200000000003,9.1524000000000001
92, 2.600.000,165,,300,3+,4,4,4,0,2020,Nuovo,Centralizzato,A1,Milano,Sempione,"Via Giovanni Prati, 6",45.478700000000003,9.1620000000000008
93, 2.350.000,,4,187,2,3,3,6,1,1947,Ottimo,Centralizzato,G,Milano,Duomo,Via Cusani,45.468699999999998,9.1841000000000008
94, 380.000,100,3,85,1,2,2,2,0,1900,Buono,Autonomo,G,Milano,Navigli - Darsena,"Via Carlo d'Adda, 2",45.4482,9.1601999999999997
95,Prezzo su richiesta,,,480,3,16,16,20,2,1980,Ottimo,Centralizzato,G,Milano,Vincenzo Monti,Via Giuseppe Revere,45.472099999999998,9.1693999999999996
96, 170.000,17,1,28,1,2,2,2,0,1970,Buono,Autonomo,G,Milano,Navigli - Darsena,"Via Filippo Argelati, 47",45.445900000000002,9.1685999999999996
97, 240.000,25,1,35,1,1,1,2,0,1960,Buono,Autonomo,G,Milano,Navigli - Darsena,"Via Filippo Argelati, 47",45.445900000000002,9.1685999999999996
98, 1.320.000,165,4,156,2,4,4,4,0,2020,Nuovo,Centralizzato,A1,Milano,Sempione,"Via Giovanni Prati, 6",45.478700000000003,9.1620000000000008
99, 815.000,165,3,106,2,2,2,4,0,2020,Nuovo,Centralizzato,A1,Milano,Sempione,"Via Giovanni Prati, 6",45.478700000000003,9.1620000000000008
100, 1.320.000,165,4,156,2,4,4,4,0,2020,Nuovo,Centralizzato,A1,Milano,Sempione,"Via Giovanni Prati, 6",45.478700000000003,9.1620000000000008
101, 2.200.000,340,5,300,3,5,5,5,0,2012,Nuovo,Centralizzato,A1,Milano,Vercelli - Wagner,"Via Raffaello Sanzio, 23",45.468200000000003,9.1524000000000001
102, 2.600.000,165,,300,3+,4,4,4,0,2020,Nuovo,Centralizzato,A1,Milano,Sempione,"Via Giovanni Prati, 6",45.478700000000003,9.1620000000000008
103, 2.200.000,830,5,270,3,9,9,9,0,1960,Ristrutturare,Centralizzato,G,Milano,Sempione,"Via Domodossola, 17",45.481000000000002,9.1616999999999997
104, 385.000,100,2,64,1,5,5,5,0,1940,Buono,Centralizzato,B,Milano,Washington,"Via Fra' Bartolomeo, 9",45.457000000000001,9.1534999999999993
105, 370.000,200,3,120,2,T,,4,0,1970,Ottimo,Centralizzato,G,Milano,Città Studi,"Via Felice Poggi, 14",45.483499999999999,9.2280999999999995
106, 155.000,120,2,61,1,S - 1,,6,0,1964,Ottimo,Centralizzato,E,Milano,Viale Ungheria - Mecenate,"Via Romualdo Bonfadini, 94",45.444400000000002,9.2428000000000008
107, 225.000,70,1,40,1,T,,4,0,2020,Ottimo,Centralizzato,D,Milano,Zara,"Viale Zara, 52",45.493200000000002,9.1936
108, 299.000,163,2,45,1,3,3,7,0,1950,Ottimo,Centralizzato,G,Milano,Quadronno - Crocetta,"Viale Beatrice D'Este, 39",45.452199999999998,9.1952700000000007
109, 260.000,150,2,50,1,1,1,5,0,1920,Ottimo,Centralizzato,E,Milano,Casoretto,"Via Nicola Antonio Porpora, 93",45.486199999999997,9.2260000000000009
110, 290.000,80,2,50,2,T,,5,0,2020,Nuovo,Centralizzato,B,Milano,Zara,"Viale Zara, 52",45.493200000000002,9.1936
111, 240.000,100,3,48,1,T,,5,0,2020,Nuovo,Centralizzato,B,Milano,Isola,Via Abbadesse,45.4908,9.1953999999999994
112, 350.000,100,2,63,1,3,3,4,0,1920,Buono,Centralizzato,G,Milano,Washington,"Via Garian, 45",45.458199999999998,9.1522000000000006
113, 200.000,50,2,40,1,T,,4,0,2020,Nuovo,Autonomo,B,Milano,Ripamonti,Via Gallura,45.4375,9.1992999999999991
114, 310.000,134,2,62,1,4,4,8,0,1960,Buono,Centralizzato,E,Milano,Città Studi,Via Filippo Tajani,45.472299999999997,9.2367000000000008
115, 330.000,120,3,120,3,T,,1,1,1970,Ottimo,Centralizzato,F,Milano,Comasina,Via Gaetano Salvemini,45.527299999999997,9.1659000000000006
116, 950.000,250,3,140,2,2,2,7,0,1960,Buono,Centralizzato,G,Milano,Piave - Tricolore,"Viale Piave, 21",45.471400000000003,9.2065000000000001
117, 745.000,415,3,113,2,R,,4,0,1947,Buono,Centralizzato,E,Milano,Palestro,"Via Vincenzo Bellini, 4",45.465499999999999,9.2045999999999992
118, 250.000,180,2,85,1,4,4,5,2,1950,Buono,Autonomo,,Milano,San Siro,"Via Daniele Ricciarelli, 19",45.470599999999997,9.1402999999999999
119, 195.000,,3,80,2,3,3,3,0,,Ottimo,Autonomo,,Milano,Certosa,Via Cesare Ajraghi,45.497199999999999,9.1479999999999997
120, 175.000,50,2,50,1,4,4,4,0,1970,Ottimo,Centralizzato,G,Milano,Affori,Via Rufo,45.519300000000001,9.1717999999999993
121, 2.200.000,733,3,250,2,T,,2,1,1800,Nuovo,Autonomo,B,Milano,Carrobbio,Piazza Borromeo,45.463299999999997,9.1830999999999996
122, 193.000,130,2,61,1,S - 5,,5,1,2018,Nuovo,Autonomo,A,Milano,Quinto Romano,Via Giuseppe Chiostergi,45.476500000000001,9.0875000000000004
123, 250.000,105,1,40,1,1,1,1,0,1970,Ottimo,Centralizzato,E,Milano,Maggiolina,Via Adele Martognoni,45.493200000000002,9.1966999999999999
124, 160.000,100,2,50,1,3,3,4,0,1900,Ristrutturare,Centralizzato,G,Milano,Dergano,Via Grazioli,45.509,9.1724999999999994
125, 599.000,100,3,107,2,3,3,5,0,1950,Buono,Autonomo,G,Milano,Zara,Piazzale Segrino,45.490400000000001,9.1889000000000003
126, 230.000,148,2,67,1,5,5,6,0,,Buono,Centralizzato,,Milano,Ponte Nuovo,PRIVATA ANTONIO MEUCCI 67.,45.507899999999999,9.2393599999999996
127, 158.000,100,2,45,1,2,2,2,0,1990,Ottimo,Centralizzato,F,Milano,Affori,VIA NOVARO,45.518999999999998,9.1685999999999996
128, 465.000,350,3,120,1,R,,8,0,1950,Ottimo,Centralizzato,G,Milano,Monte Rosa - Lotto,"Viale Berengario, 19",45.476599999999998,9.1511999999999993
129, 580.000,350,3,115,1,R,,8,0,1960,Ottimo,Centralizzato,G,Milano,City Life,Viale Berengario,45.4756,9.1515000000000004
130, 126.000,40,2,25,1,4,4,4,0,1930,Ottimo,Autonomo,F,Milano,Casoretto,Via Ruggero Leoncavallo,45.491399999999999,9.2262000000000004
131, 375.000,200,3,112,1,7,7,7,0,1960,Buono,Centralizzato,G,Milano,Prato Centenaro,Viale Ca Granda,45.507800000000003,9.1952999999999996
132, 249.000,100,3,86,1,3,3,3,0,1970,Nuovo,Autonomo,F,Milano,Dergano,Via Monte San Genesio,45.499400000000001,9.1793999999999993
133, 370.000,66,3,74,1,4,4,4,0,1970,Ottimo,Autonomo,F,Milano,Lodi - Brenta,Via Sannio,45.446399999999997,9.2139000000000006
134, 595.000,100,3,100,1,3,3,5,0,1940,Buono,Centralizzato,B,Milano,Washington,"Via Fra' Bartolomeo, 9",45.457000000000001,9.1534999999999993
135, 750.000,100,3,93,2,1,1,4,0,1920,Nuovo,Centralizzato,A1,Milano,Vercelli - Wagner,"Via Marghera, 2",45.467700000000001,9.1546000000000003
136, 860.000,100,3,140,1,4,4,5,0,1940,Ottimo,Centralizzato,B,Milano,Washington,"Via Fra' Bartolomeo, 9",45.457000000000001,9.1534999999999993
137, 1.150.000,,4,130,2,1,1,5,0,2012,Ottimo,Centralizzato,A1,Milano,Vercelli - Wagner,"Via Raffaello Sanzio, 23",45.468200000000003,9.1524000000000001
138, 330.000,100,2,90,2,1,1,1,0,,Ottimo,Autonomo,F,Milano,Turro,Via Matteo Maria Boiardo,45.5,9.2222000000000008
139, 530.000,110,2,70,1,4,4,5,0,,Ottimo,Autonomo,G,Milano,Vercelli - Wagner,Via Giovanni Rasori,45.467700000000001,9.1632999999999996
140, 310.000,70,2,40,1,2,2,4,0,1900,Ottimo,Centralizzato,F,Milano,Morgagni,Via Antonio Baldissera,45.474299999999999,9.2134999999999998
141, 280.000,70,1,35,1,1,1,2,0,,Ottimo,Autonomo,,Milano,Rovereto,"Via Martiri Oscuri, 6",45.494900000000001,9.218
142, 465.000,220,3,110,2,1,1,5,0,2010,Ottimo,Centralizzato,,Milano,Piazzale Siena,Via Ernesto Besenzanica,45.464100000000002,9.1320999999999994
143, 399.000,130,3,65,1,1,1,4,0,1950,Ottimo,Centralizzato,F,Milano,Paolo Sarpi,Via Morrazzone,45.480200000000004,9.1732999999999993
144, 195.000,110,2,64,1,3,3,6,0,1960,Ristrutturare,Centralizzato,G,Milano,Molise - Cuoco,"Via Cadibona, 9",45.453800000000001,9.2254000000000005
145, 475.000,,3,72,1,1,1,5,0,1960,Ottimo,Centralizzato,G,Milano,Città Studi,Via Enrico Nöe,45.477400000000003,9.2184000000000008
146, 615.000,145,3,100,2,4,4,5,0,1920,Ottimo,Centralizzato,F,Milano,Navigli - Darsena,Via Vigevano,45.453000000000003,9.1746999999999996
147, 199.000,100,3,60,1,T,,1,1,1970,Ottimo,Centralizzato,F,Milano,Affori,Via Palmaria,45.514899999999997,9.1775000000000002
148, 650.000,,3,70,2,1,1,5,0,1970,Ottimo,Centralizzato,C,Milano,Vincenzo Monti,Via Vincenzo Monti,45.470100000000002,9.1702999999999992
149, 175.000,83,1,40,1,2,2,5,0,1921,Buono,Centralizzato,G,Milano,Città Studi,PIAZZA ARGENTINA,45.4846,9.2172699999999992
150, 1.980.000,130,,245,2,4,4,4,0,1940,Nuovo,Centralizzato,A1,Milano,Monte Rosa - Lotto,"Viale Berengario, 5/7",45.475000000000001,9.1510999999999996
151,"da  192.000,00",,2,77,1,1,,6,1,1989,Buono,Autonomo,G,Milano,Isola,"Via Valtellina, 12",45.490299219999997,9.1815004299999998
152, 310.000,100,2,45,1,3,3,5,0,2020,Nuovo,Autonomo,A,Milano,De Angeli,"Via Alberto Mario, 65",45.468299999999999,9.1463000000000001
153, 240.000,70,2,51,1,1,1,4,0,1930,Buono,Autonomo,G,Milano,Pezzotti - Meda,"Via Giulio Carcano, 19",45.439500000000002,9.1803000000000008
154, 325.000,80,2,48,1,7,7,7,0,1959,Nuovo,Autonomo,,Milano,Monte Rosa - Lotto,"Via dei Carracci, 10",45.477899999999998,9.1494999999999997
155, 455.000,225,3,110,2,4,4,8,0,1965,Buono,Centralizzato,G,Milano,Giambellino,Via Filippo Brunelleschi,45.448,9.1443999999999992
156, 465.000,180,3,70,2,R,,7,0,1930,Ottimo,Centralizzato,F,Milano,Solari,Via Vincenzo Foppa,45.457799999999999,9.1611999999999991
157, 1.100.000,320,4,155,2,3,3,4,0,1940,Nuovo,Centralizzato,G,Milano,Arco della Pace,Piazza Sempione,45.475900000000003,9.1715999999999998
158, 216.000,100,2,54,1,T,,2,0,1970,Ottimo,Autonomo,G,Milano,Città Studi,Via Giovanni Paisiello,45.481699999999996,9.2194000000000003
159, 170.000,125,2,50,1,1,1,1,0,1970,Ottimo,Autonomo,G,Milano,Villa San Giovanni,"Viale Monza, 305",45.516300000000001,9.2256
160, 439.000,120,2,60,1,3,3,5,1,2020,Nuovo,Centralizzato,B,Milano,De Angeli,Via Alberto Mario,45.4696,9.1480999999999995
161, 698.000,110,3,90,2,R,,3,0,1940,Ottimo,Centralizzato,F,Milano,Ticinese,Via Cosimo del Fante,45.455300000000001,9.1857000000000006
162, 639.000,250,3,115,2,1,1,7,2,1960,Ottimo,Centralizzato,,Milano,Città Studi,Via Enrico Caruso,45.472700000000003,9.2359000000000009
163, 620.000,150,3,95,1,1,1,4,0,1900,Ottimo,Centralizzato,E,Milano,Morgagni,Via degli Scipioni,45.472999999999999,9.2151999999999994
164, 945.000,380,3,135,2,R,,5,0,1800,Buono,Centralizzato,G,Milano,Washington,"Via Ruggiero Settimo, 2",45.464500000000001,9.1544000000000008
165, 198.000,83,2,49,1,1,1,7,0,1930,Nuovo,Autonomo,E,Milano,Certosa,"Viale Certosa, 32",45.490499999999997,9.1510999999999996
166, 650.000,130,3,101,2,T,,4,0,1940,Nuovo,Centralizzato,A1,Milano,Monte Rosa - Lotto,"Via Monte Bianco, 4/6",45.474899999999998,9.1506000000000007
167, 349.000,100,2,50,1,T,,1,0,1930,Ottimo,Centralizzato,F,Milano,Porta Romana - Medaglie d'Oro,VIA FRIULI,45.453299999999999,9.2125000000000004
168, 165.000,75,3,70,1,1,1,3,0,2019,Ottimo,Autonomo,E,Milano,Ponte Lambro,Via Umiliati,45.440300000000001,9.2652000000000001
169, 450.000,240,2,88 m² | commerciale 90,1,4,4,5,0,1920,Buono,Centralizzato,F,Porta Romana - Medaglie d'Oro,,,45.4467,9.1994000000000007
170, 348.000,130,2,65,1,2,2,6,0,1950,Ottimo,Centralizzato,G,Milano,Navigli - Darsena,"Via Carlo d'Adda, 16",45.446899999999999,9.1608999999999998
171, 780.000,300,3,75,1,4,4,4,0,1900,Ottimo,Centralizzato,G,Sant'Ambrogio,,,45.463000000000001,9.1752000000000002
172, 780.000,300,3,75,1,4,4,4,0,1900,Ottimo,Centralizzato,G,Duomo,,,45.464500000000001,9.1850000000000005
173, 1.150.000,,,215,3,3,3,7,0,1970,Ristrutturare,Centralizzato,E,Milano,Washington,Via Roncaglia,45.4589,9.1530000000000005
174, 675.000,150,4,150,3,R,,2,0,1960,Ottimo,Autonomo,G,Navigli - Darsena,,,45.447699999999998,9.1631999999999998
175, 199.000,83,2,60,1,3,3,4,0,1920,Buono,Autonomo,G,Milano,Gorla,"Via Fratelli Pozzi, 1",45.504399999999997,9.2223000000000006
176, 675.000,150,4,150,3,R,,2,0,1960,Ottimo,Autonomo,G,Ascanio Sforza,,,45.446300000000001,9.1781000000000006
177, 675.000,150,4,150,3,R,,2,0,1960,Ottimo,Autonomo,G,Ascanio Sforza,,,45.446300000000001,9.1781000000000006
178, 760.000,375,4,210,3,,,1,1,2011,Nuovo,Centralizzato,B,Milano,Tre Castelli - Faenza,Via San Giuseppe Cottolengo,45.441400000000002,9.1442999999999994
179, 140.000,125,2,51,1,R,,5,0,1970,Buono,Centralizzato,,Milano,Cimiano,"Via Monfalcone, 23",45.496000000000002,9.2375000000000007
180, 245.000,150,2,55,1,3,3,6,1,2007,Ottimo,Centralizzato,D,Milano,San Siro,Via Alfonso Capecelatro,45.4694,9.1319999999999997
181, 156.000,100,2,41,1,4,4,4,0,1970,Ottimo,Autonomo,F,Milano,Bruzzano,Via Pesaro,45.530900000000003,9.1721000000000004
182, 250.000,167,3,80,1,2,2,4,0,1950,Ristrutturare,Centralizzato,D,Milano,Ripamonti,Largo Camillo Caccia Dominioni 3,45.437800000000003,9.1962899999999994
183, 540.000,235,4,130,2,2,2,7,1,1970,Ottimo,Centralizzato,E,Milano,Vigentino - Fatima,via Wolf Ferrari  19,45.432000000000002,9.2056500000000003
184, 210.000,115,2,45,1,2,2,7,0,1970,Ottimo,Centralizzato,E,Milano,Vigentino - Fatima,via Wolf Ferrari  19,45.432000000000002,9.2056500000000003
185, 399.000,,3,70,1,R,,8,0,1970,Ottimo,Centralizzato,G,Amendola - Buonarroti,,,45.470599999999997,9.1516999999999999
186, 980.000,330,3,120,2,3,3,5,1,,Nuovo,Centralizzato,E,Milano,Vincenzo Monti,via monti,45.469099999999997,9.1715900000000001
187, 260.000,65,2,60,1,3,3,5,0,1920,Buono,Autonomo,F,Milano,Centrale,"Via Giovanni Schiaparelli, 1",45.4893,9.2053999999999991
188, 948.000,,3,138,2,3,3,8,1,1970,Ottimo,Centralizzato,F,Milano,Frua,"Via Giuseppe Frua, 21",45.4649,9.1478400000000004
189, 279.000,117,2,70,1,2,2,5,0,1970,Ristrutturare,Centralizzato,E,Milano,Barona,"Via Ambrogio Binda, 3",45.444000000000003,9.1552000000000007
190, 216.000,100,2,50,1,R,,4,0,1930,Buono,Autonomo,F,Milano,Città Studi,"Via Giovanni Paisiello, 3",45.481499999999997,9.2178000000000004
191, 480.000,,3,90,1,2,2,2,0,2020,Nuovo,Autonomo,A,Milano,Farini,via Farini 92,45.497,9.1864699999999999
192, 550.000,,2,70,2,5,5,6,0,1900,Ottimo,Autonomo,A,Milano,Vercelli - Wagner,Via Michelangelo Buonarroti,45.468499999999999,9.1553000000000004
193, 675.000,150,4,150,3,R,,2,0,1960,Ottimo,Autonomo,G,Navigli - Darsena,,,45.4467,9.1637000000000004
194, 399.000,,3,70,1,R,,8,0,1970,Ottimo,Centralizzato,G,Washington,,,45.459800000000001,9.1568000000000005
195, 1.200.000,600,5,320,3+,S - T,,,0,,Ristrutturare,,G,Milano,Ascanio Sforza,Via Cardinale Ascanio Sforza,45.448999999999998,9.1774000000000004
196, 219.000,15,2,55,1,T,,1,1,1900,Buono,Autonomo,G,Milano,Dergano,"Via Carlo Cafiero, 15",45.499600000000001,9.1738
197, 2.300.000,690,,302,3,1,1,8,1,1900,Ristrutturare,Centralizzato,G,Borgogna - Largo Augusto,,,45.4634,9.1973000000000003
198, 198.000,,2,50,1,T,,4,0,1920,Nuovo,Autonomo,,Milano,Pasteur,"Via Natale Battaglia, 1",45.487699999999997,9.2164999999999999
199, 388.000,,4,130,2,1,1,7,0,1970,Buono,Centralizzato,G,Milano,Inganni,Via Zurigo,45.456600000000002,9.1182999999999996
200, 320.000,197,3,88,,,,5,1,1970,Ottimo,Centralizzato,G,Milano,Piazzale Siena,"Via Santi Nabore e Felice, 7",45.465899999999998,9.1295000000000002
201, 630.000,,4,177,3,T,,3,2,,Ottimo,Autonomo,B,Milano,Ponte Nuovo,"Via Paolo Gerolamo Biumi, 23",45.506300000000003,9.2367000000000008
202, 610.000,233,3,95,1,5,5,8,2,1960,Buono,Centralizzato,G,Milano,Arena,"Via Cesare Cesariano, 6",45.478700000000003,9.1768000000000001
203, 285.000,120,2,48,1,T,,3,0,1900,Ottimo,Centralizzato,E,Milano,Argonne - Corsica,Via Catania,45.467300000000002,9.2270000000000003
204, 1.800.000,130,1,246,,,,2,0,1950,Ottimo,Autonomo,,Milano,Barona,Via Lodovico il Moro,45.447000000000003,9.1536000000000008
205, 435.000,,3,80,1,R,,8,0,1970,Ottimo,Centralizzato,G,Amendola - Buonarroti,,,45.470599999999997,9.1516999999999999
206, 465.000,,3,90,1,1,1,4,0,,Buono,Autonomo,G,Porta Romana - Medaglie d'Oro,,,45.451999999999998,9.2011000000000003
207, 2.100.000,1,,280,3,3,3,3,1,1940,Buono,Centralizzato,,Milano,Monte Rosa - Lotto,via Desiderio da Settignano,45.476199999999999,9.1484100000000002
208, 180.000,165,2,62,1,S - R,,8,0,1960,Ristrutturare,Centralizzato,G,Milano,Inganni,"Via Zurigo, 20",45.456899999999997,9.1184999999999992
209, 770.000,292,4,145,2,4,4,6,0,,Ristrutturare,Centralizzato,C,Milano,Città Studi,Milano Viale Romagna,45.479300000000002,9.2233699999999992
210, 395.000,267,3,100,1,1,1,7,0,1960,Ristrutturare,Centralizzato,G,Milano,Centrale,Milano Via Ponte Seveso,45.488500000000002,9.2039600000000004
211, 395.000,150,3,80,1,1,1,5,0,1960,Ristrutturare,Centralizzato,G,Milano,Città Studi,"Milano Via Plinio, 72, 72",45.474299999999999,9.2225800000000007
212, 435.000,,3,80,1,R,,8,0,1970,Ottimo,Centralizzato,G,Washington,,,45.459099999999999,9.1561000000000003
213, 173.000,60,1,32,1,3,3,3,1,1930,Ottimo,Autonomo,G,Navigli - Darsena,,,45.4495,9.1661000000000001
214, 465.000,,3,90,1,1,1,4,0,,Buono,Autonomo,G,Bocconi,,,45.450899999999997,9.1964000000000006
215, 265.000,100,2,55,1,R,,6,0,,Buono,Centralizzato,G,Milano,Morgagni,Milano Viale Abruzzi,45.475900000000003,9.2167700000000004
216, 135.000,80,1,35,1,T,,5,0,1980,Ottimo,Autonomo,,Milano,Dergano,"Via Populonia, 8",45.501399999999997,9.1888000000000005
217, 180.000,165,2,62,1,S - R,,8,0,1960,Ristrutturare,Centralizzato,G,Milano,Inganni,"Via Zurigo, 20",45.456899999999997,9.1184999999999992
218,"da  61.500,00",,2,60,1,1,1,,0,,Buono,,,Milano,San Siro,"Via Matteo Civitali, 4",45.470020290000001,9.1356697100000002
219, 1.030.000,350,4,128,1,5,5,5,0,1930,Buono,Autonomo,G,Milano,Vercelli - Wagner,"Via Mario Pagano, 67",45.468200000000003,9.1610999999999994
220, 360.000,100,2,60,1,1,1,4,0,1900,Ottimo,Autonomo,E,Repubblica,,,45.479900000000001,9.1990999999999996
221, 900.000,130,3,95,2,1,1,4,0,1900,Ottimo,Autonomo,F,Milano,Duomo,Via Meravigli,45.465899999999998,9.1836000000000002
222, 395.000,142,2,44,1,1,1,8,0,2000,Ottimo,Centralizzato,,Milano,Bocconi,via Salasco,45.450699999999998,9.1967400000000001
223, 470.000,100,2,55,1,2,2,5,0,1900,Ottimo,Autonomo,E,Milano,Porta Venezia,"Via Melzo, 12",45.473500000000001,9.2096
224, 140.000,100,2,55,1,R,,5,0,1950,Ristrutturare,Centralizzato,G,Milano,Primaticcio,Via degli Astri,45.453299999999999,9.1265999999999998
225, 440.000,1,3,78,1,1,1,7,0,1930,Ristrutturare,Autonomo,G,Milano,Vercelli - Wagner,Via Giovanni De Alessandri,45.463099999999997,9.1590000000000007
226, 155.000,,2,60,1,3,3,3,0,1960,Ristrutturare,Centralizzato,G,Milano,Cermenate - Abbiategrasso,"Via Neera, 10",45.4328,9.1753
227, 360.000,100,2,60,1,1,1,4,0,1900,Ottimo,Autonomo,E,Centrale,,,45.484999999999999,9.2006999999999994
228, 1.140.000,,4,190,3,T,,4,1,1900,Ottimo,Autonomo,G,Milano,Sempione,via Lomazzo,45.485700000000001,9.1684099999999997
229, 1.300.000,500,5,200,3,2,2,5,0,1940,Ottimo,Centralizzato,E,Milano,Washington,Via Giorgio Washington,45.461300000000001,9.1542999999999992
230, 94.000,,1,35,1,1,1,3,0,,Ottimo,Autonomo,,Milano,Gorla,Via Sassari,45.506500000000003,9.2297999999999991
231, 167.000,100,2,48,1,T,,3,1,1970,Ottimo,Centralizzato,F,Milano,Bruzzano,Via Fontanelli,45.524500000000003,9.1725999999999992
232, 65.000,100,2,57,1,S,,3,0,1950,Buono,Autonomo,G,Milano,Piazzale Siena,Piazza Melozzo da Forlì,45.4679,9.1309000000000005
233, 280.000,,2,40,1,1,1,,0,1950,Ottimo,Centralizzato,G,Milano,Vercelli - Wagner,via marghera,45.467500000000001,9.1541700000000006
234, 149.000,140,2,50,1,4,4,5,1,1960,Ottimo,Centralizzato,G,Milano,Bovisa,Via Francesco Paolo Michetti,45.499899999999997,9.1667000000000005
235, 124.000,110,1,35,1,1,1,4,0,1960,Ottimo,Centralizzato,F,Milano,Dergano,Via Enrico Cialdini,45.508800000000001,9.1727000000000007
236,"da  63.750,00",,2,50,1,T,,6,0,1950,Ristrutturare,,F,Milano,Certosa,"Via Pier Francesco Mola, 11",45.497810360000003,9.1433610900000009
237, 450.000,417,3,125,2,4,4,4,0,1960,Buono,Centralizzato,G,San Siro,,,45.4773,9.1155000000000008
238, 265.000,100,2,55,1,R,,6,0,,Buono,Centralizzato,G,Milano,Morgagni,Milano Viale Abruzzi,45.475900000000003,9.2167700000000004
239, 440.000,,4,144,3,T - 4,,4,1,1960,Ristrutturare,Centralizzato,G,Milano,Cimiano,"Via Aldo Tarabella, 3",45.495800000000003,9.2344000000000008
240, 163.000,100,2,42,1,T,,3,1,1970,Ottimo,Centralizzato,F,Milano,Bruzzano,Via Fontanelli,45.524500000000003,9.1725999999999992
241, 295.000,,4,100,1,T,,6,0,,Nuovo,Autonomo,E,Milano,Città Studi,Via Ampere,45.484400000000001,9.2264900000000001
242,Prezzo su richiesta,250,4,110,2,T,,2,0,2008,Ottimo,Centralizzato,G,Milano,Viale Ungheria - Mecenate,Via Oreste Salomone,45.452100000000002,9.2415000000000003
243, 265.000,166,3,105,1,T - 3,,6,1,1980,Ottimo,Centralizzato,,Milano,Gallaratese,"Via Francesco Cilea, 56",45.496699999999997,9.1042000000000005
244, 3.500.000,830,5,350,3+,4,4,5,1,1900,Ottimo,Centralizzato,F,Milano,Palestro,Via Vincenzo Bellini,45.465600000000002,9.2044999999999995
245, 168.000,142,1,41,1,8,8,8,0,1960,Buono,Centralizzato,E,Milano,Piazzale Siena,via privata Piero Martinetti,45.466799999999999,9.1351300000000002
246, 1.850.000,200,4,150,2,6,6,6,1,1990,Ottimo,Autonomo,F,Milano,Porta Romana - Medaglie d'Oro,Via Francesco Burlamacchi,45.4512,9.2063000000000006
247, 575.000,,3,107,2,4,4,7,0,1900,Buono,Centralizzato,,Milano,Centrale,"Via Giovanbattista Pergolesi, 24",45.4861,9.2086000000000006
248, 720.000,,2,80,1,6,6,6,0,1900,Ottimo,Centralizzato,G,Milano,Quadronno - Crocetta,Via Pietro Micca,45.4574,9.2005999999999997
249, 720.000,,2,80,1,6,6,6,0,1900,Ottimo,Centralizzato,G,Milano,Quadronno - Crocetta,Via Pietro Micca,45.4574,9.2005999999999997
250, 450.000,,4,125,2,4,4,4,0,1960,Buono,Centralizzato,G,Sempione,,,45.4818,9.1645000000000003
251, 370.000,83,1,44,1,2,2,6,0,1930,Nuovo,Centralizzato,E,Milano,Guastalla,via Podgora,45.461199999999998,9.2034599999999998
252, 169.000,,1,47,1,1,1,6,1,2022,Nuovo,Autonomo,A2,Milano,Bovisa,Via Giuseppe Candiani,45.503100000000003,9.1660000000000004
253, 440.000,67,1,55,1,2,2,5,0,1900,Ottimo,Centralizzato,G,Milano,Moscova,Via Pontida,45.479799999999997,9.1827000000000005
254, 250.000,105,2,40,1,T,,1,0,,Ottimo,Centralizzato,G,Milano,Maggiolina,Via Martignoni Adele,45.493200000000002,9.1967099999999995
255,"da  135.000,00",,,136,2,4,4,6,0,,Ristrutturare,Centralizzato,G,Milano,Roserio,"Via Longarone, 18/4",45.520030980000001,9.1419649100000004
256, 200.000,150,3,70,1,8,8,8,0,,Ristrutturare,Centralizzato,D,Milano,Cantalupa - San Paolo,via Agostino Depretis,45.429499999999997,9.1546099999999999
257, 3.200.000,,,257,3,5,5,6,0,1900,Ristrutturare,Centralizzato,E,Milano,Palestro,Piazza Eleonora Duse,45.471200000000003,9.2042999999999999
258, 335.000,150,3,80,1,R,,3,0,1950,Buono,Centralizzato,G,Milano,Argonne - Corsica,"Via Privata Labeone, 20",45.466500000000003,9.2319999999999993
259, 850.000,330,5,130,3,8,8,8,1,,Ottimo,Centralizzato,F,Milano,Sempione,"Corso Sempione, 83",45.486198430000002,9.1582899100000006
260, 285.000,100,1,63,1,T,,5,1,1930,Ottimo,Centralizzato,G,Milano,Porta Romana - Medaglie d'Oro,"Via Atto Vannucci, 9",45.4495,9.1986000000000008
261, 245.000,100,4,74,1,S,,1,0,,Ottimo,Centralizzato,G,Milano,Indipendenza,Via Melloni,45.4666,9.2160100000000007
262,"da  135.000,00",,,136,2,4,4,6,0,,Ristrutturare,Centralizzato,G,Milano,Roserio,"Via Longarone, 18/4",45.520030980000001,9.1419649100000004
263, 200.000,150,3,70,1,8,8,8,0,,Ristrutturare,Centralizzato,D,Milano,Cantalupa - San Paolo,via Agostino Depretis,45.429499999999997,9.1546099999999999
264, 595.000,130,3,83,1,3,3,,0,,Ristrutturare,,F,Milano,Morgagni,"Via Plinio, 42",45.4771,9.2164000000000001
265,"da  61.500,00",,3,60,1,1,1,6,0,1967,Buono,Centralizzato,G,Milano,San Siro,"Via Matteo Civitali, 4",45.470020290000001,9.1356697100000002
266, 330.000,83,1,42,1,2,2,6,0,1930,Nuovo,Centralizzato,E,Milano,Guastalla,via Podgora,45.461199999999998,9.2034599999999998
267, 695.000,290,3,90,2,R,,3,0,1960,Ottimo,Centralizzato,G,Carrobbio,,,45.458399999999997,9.1876999999999995
268, 695.000,290,3,90,2,R,,3,0,1960,Ottimo,Centralizzato,G,Ticinese,,,45.454500000000003,9.1868999999999996
269, 1.270.000,,3,150,1,1,1,5,0,1900,Ottimo,,G,Milano,Garibaldi - Corso Como,Via Pietro Maroncelli,45.482900000000001,9.1831999999999994
270, 1.250.000,292,5,160,2,6,6,7,1,1960,Ristrutturare,Centralizzato,F,Milano,Cadore,"Via Privata Rezia, 2",45.4557,9.2149000000000001
271, 1.300.000,333,5,200,2,6,6,6,0,1950,Buono,Centralizzato,G,,,,45.450899999999997,9.1917000000000009
272, 460.000,242,4,150,3,R,,,0,2010,Nuovo,Centralizzato,D,Milano,Ripamonti,"via Bernardino Verro, 33",45.440300000000001,9.1907099999999993
273, 600.000,166,3,77,1,3,3,4,0,2010,Ottimo,Autonomo,B,Milano,Isola,Via Pola,45.488799999999998,9.1941000000000006
274, 340.000,100,2,60,1,1,1,4,0,1970,Ottimo,Autonomo,E,Milano,Pasteur,Via Natale Battaglia,45.488999999999997,9.2149000000000001
275, 380.000,100,2,60,1,T,,1,0,1950,Ottimo,Centralizzato,F,Milano,Isola,Via Jacopo dal Verme,45.487499999999997,9.1870999999999992
276, 1.150.000,,,215,3,3,3,7,0,1970,Ristrutturare,Centralizzato,E,Vercelli - Wagner,,,45.468600000000002,9.1557999999999993
277, 105.000,,2,45,1,2,2,4,0,1920,Ristrutturare,Autonomo,G,Milano,Parco Trotter,"Via Clitumno, 19",45.493400000000001,9.2279
278, 820.000,5,4,170,2,1,1,5,1,1990,Ottimo,Centralizzato,G,,,,45.4818,9.1645000000000003
279, 225.000,42,2,65,2,R,,4,0,,Buono,Autonomo,G,Milano,Pezzotti - Meda,via Pezzotti 42,45.439900000000002,9.1830400000000001
280, 400.000,100,2,60,1,1,1,1,0,1970,Ottimo,Autonomo,F,Milano,Cenisio,Via Principe Eugenio,45.490699999999997,9.1659000000000006
281, 490.000,166,2,66,1,3,3,4,0,2010,Ottimo,Autonomo,B,Milano,Isola,Via pola,45.488799999999998,9.1941000000000006
282, 419.000,100,2,65,1,4,4,5,0,1930,Ottimo,Autonomo,G,Milano,Porta Romana - Medaglie d'Oro,Via Crema,45.450899999999997,9.2022999999999993
283, 165.000,42,2,50,1,2,2,3,0,,Ottimo,Autonomo,G,Milano,Gorla,Viale Monza,45.504899999999999,9.2222500000000007
284, 230.000,170,2,55,1,2,2,,0,,Ottimo,Centralizzato,G,Milano,Martini - Insubria,"Via Pistrucci, 24/B",45.453899999999997,9.2190100000000008
285, 180.000,150,2,55,1,T,,2,0,1970,Ottimo,Centralizzato,F,Milano,Bruzzano,Via Rapisardi,45.525700000000001,9.1749200000000002
286, 530.000,110,2,70,1,4,4,5,0,,Ottimo,Autonomo,G,,,,45.469799999999999,9.1631
287,"da  129.000,00",,3,76,1,4,4,,0,,Ristrutturare,Centralizzato,G,Milano,Farini,via edoardo jenner,45.497020720000002,9.1815395399999993
288, 245.000,150,2,65,1,5,5,7,0,1970,Ottimo,Centralizzato,F,Milano,San Siro,"via Capecelatro, 38",45.470700000000001,9.1308000000000007
289,"da  63.750,00",,2,50,1,T,,,0,,Ristrutturare,,G,Milano,Certosa,VIA PIER FRANCESCO MOLA,45.498008730000002,9.1434202199999994
290, 589.500,,4,133,2,6,6,6,1,2022,Nuovo,Autonomo,A2,Milano,Bovisa,Via Giuseppe Candiani,45.5032,9.1660000000000004
291,"da  61.500,00",,2,60,1,1,1,,0,,Ristrutturare,,G,Milano,San Siro,VIA MATTEO CIVITALI,45.470020290000001,9.1356697100000002
292, 550.000,300,3,90,2,6,6,1,0,2020,Nuovo,Centralizzato,A+,Milano,Lodi - Brenta,Via Tacito 14,45.4482,9.2192299999999996
293,"da  135.000,00",,5,139,2,4,4,,0,,Ristrutturare,,G,Milano,Roserio,VIA LONGARONE,45.520038599999999,9.1419401199999992
294, 389.000,200,4,160,1,T,,4,0,1970,Ottimo,Centralizzato,F,Cimiano,,,45.502299999999998,9.2289999999999992
295,"da  90.000,00",,2,98,1,S,,,0,,Ristrutturare,,G,Milano,Dergano,VIA MONTE SAN GENESIO,45.500209810000001,9.1795301400000007
296, 650.000,,3,70,2,1,1,5,0,1970,Ottimo,Centralizzato,C,,,,45.468800000000002,9.1626999999999992
297, 2.050.000,750,,300,3,5,5,8,0,1970,Buono,Centralizzato,G,Pagano,,,45.472999999999999,9.1610999999999994
298, 720.000,416,4,174,3,6,6,6,0,1980,Ottimo,Centralizzato,F,Milano,Bande Nere,Via Bartolomeo d'Alviano,45.458799999999997,9.1382999999999992
299,Prezzo su richiesta,,4,135,2,3,3,6,1,,Buono,Centralizzato,G,Milano,Porta Venezia,"Via Rosolino Pilo, 19",45.472900000000003,9.2133000000000003
300,"da  48.750,00",,3,41,1,4,4,4,0,,Buono,Autonomo,G,Milano,Rovereto,"Via Termopili, 38",45.493598939999998,9.2202568100000004
301, 159.000,75,3,71,1,1,1,3,1,2019,Ottimo,Centralizzato,G,Milano,Ponte Lambro,Via Umiliati,45.440300000000001,9.2651900000000005
302, 600.000,350,3,100,1,5,5,6,0,1950,Buono,Centralizzato,E,Milano,Corso San Gottardo,Via Odoardo Tabacchi,45.447600000000001,9.1806999999999999
303, 270.000,60,2,50,1,1,1,4,0,1970,Ottimo,Centralizzato,F,Milano,Gorla,Viale Monza,45.504899999999999,9.2223000000000006
304, 258.000,150,2,57,1,S,,5,0,1960,Nuovo,Autonomo,,Porta Romana - Medaglie d'Oro,,,45.447699999999998,9.2078000000000007
305, 318.000,150,3,65,1,S,,5,0,1960,Nuovo,Autonomo,,Porta Romana - Medaglie d'Oro,,,45.447699999999998,9.2078000000000007
306, 375.000,250,3,83,2,R,,8,0,,Ottimo,,,Milano,Lorenteggio,"Via Lorenteggio, 124",45.450600000000001,9.1379999999999999
307, 139.000,100,2,50,1,R,,6,0,1960,Buono,Centralizzato,F,Milano,Bovisa,Via Antonio Carnevali,45.503,9.1712000000000007
308, 210.000,200,3,60,1,T,,1,0,,Ottimo,Centralizzato,G,Milano,Città Studi,VIA PORPORA,45.4861,9.2279499999999999
309, 450.000,,5,140,1,T,,2,0,,Ristrutturare,Centralizzato,G,Milano,San Siro,Viale Giovanni Migliara,45.478499999999997,9.1425900000000002
310, 550.000,,2,70,2,5,5,6,0,1900,Ottimo,Autonomo,A,,,,45.472900000000003,9.1640999999999995
311, 275.000,,2,70,1,T,,6,0,1960,Ottimo,Centralizzato,E,,,,45.480400000000003,9.1949000000000005
312, 215.000,2,3,100,1,3,3,6,0,1970,Buono,Centralizzato,G,Milano,Gratosoglio,via Vittorio Emanuele Orlando,45.415999999999997,9.1741899999999994
313, 158.000,58,2,45,1,4,4,4,0,1920,Ristrutturare,Autonomo,G,Milano,Pasteur,"via Pietro Crespi, 13",45.493000000000002,9.2203499999999998
314, 255.000,83,2,50,1,T,,1,0,,Ottimo,Centralizzato,G,Milano,Città Studi,VIA SANGALLO,45.4709,9.2290600000000005
315, 208.000,,2,55,1,T,,,0,2021,Ristrutturare,Autonomo,G,Milano,Giambellino,"Via Giambellino, 34",45.451000000000001,9.1494
316,"da  39.000,00",,1,29,1,2,2,,0,,Ristrutturare,,G,Milano,Barona,VIA AMBROGIO BINDA,45.441360469999999,9.1549902000000003
317,"da  39.000,00",,2,30,,,2,8,0,1962,Ristrutturare,Autonomo,G,Milano,Barona,"Via Binda , 33",45.441398620000001,9.1551466000000001
318, 82.000,120,2,55,1,1,1,4,0,1965,Buono,Centralizzato,G,Milano,Baggio,"Via Capri, 9",45.467300000000002,9.0922000000000001
319, 600.000,125,3,115,2,2,2,7,2,2000,Ottimo,Autonomo,D,,,,45.501399999999997,9.2193900000000006
320, 199.000,58,3,60,1,2,2,4,0,1930,Ottimo,Autonomo,D,Milano,Dergano,"via Carlo Imbonati, 54",45.503,9.1814300000000006
321,"da  66.825,00",,2,63,,1,1,,0,,Ristrutturare,,,Milano,Quartiere Olmi,"Via Degli Ontani , 46",45.454788209999997,9.0797014199999992
322, 157.000,100,2,50,1,T,,6,0,1970,Ristrutturare,Centralizzato,G,Dergano,,,45.505099999999999,9.1798000000000002
323, 260.000,100,2,55,1,T,,1,0,1970,Ottimo,Centralizzato,G,Milano,Ghisolfa - Mac Mahon,Via Michele Amari,45.491300000000003,9.1592699999999994
324, 320.000,100,2,55,1,S,,8,0,,Ottimo,Autonomo,G,Milano,Amendola - Buonarroti,Via San Siro,45.470300000000002,9.1532
325, 970.000,300,4,147,2,T,,,0,,Buono,Centralizzato,G,,,,45.457999999999998,9.18506
326, 170.000,110,1,30,1,1,1,4,0,,Ottimo,Centralizzato,G,,,,45.477899999999998,9.2049199999999995
327, 170.000,110,1,30,1,1,1,4,0,,Ottimo,Centralizzato,G,,,,45.477899999999998,9.2049199999999995
328, 490.000,200,2,75,1,4,4,5,0,1930,Ottimo,Autonomo,,Milano,Indipendenza,Via Giulio Uberti,45.470599999999997,9.2158999999999995
329,"da  47.000,00",,1,53,1,1,,,0,,Ristrutturare,,,Milano,Pezzotti - Meda,via Francesco Brioschi n. 74/A,45.440448760000002,9.1816101099999994
330,"da  54.000,00",,2,63,1,1,,,0,,Ristrutturare,,,Milano,Pezzotti - Meda,via brioschi 74/a,45.440448760000002,9.1816101099999994
331, 275.000,,2,70,1,T,,6,0,1960,Ottimo,Centralizzato,E,,,,45.488700000000001,9.2019000000000002
332,Prezzo su richiesta,,1,140,,,2,4,0,1920,Ristrutturare,Autonomo,,Milano,San Babila,Piazza San Babila,45.466900000000003,9.1973000000000003
333, 300.000,,2,65,1,T,,3,1,2021,Nuovo,Autonomo,F,,,,45.440800000000003,9.1806900000000002
334, 300.000,,2,65,1,T,,3,1,2021,Nuovo,Autonomo,F,,,,45.444899999999997,9.1791900000000002
335,"da  70.368,00",,2,85,1,1,4,6,0,,Buono,,,Milano,Tripoli - Soderini,"Via Ettore Romagnoli, 7",45.455230710000002,9.1463327400000001
336, 160.000,150,2,61,1,R,,6,0,1960,Ristrutturare,Centralizzato,G,Milano,Viale Ungheria - Mecenate,Via Sordello,45.442999999999998,9.2449899999999996
337, 4.000.000,,,330,3,1,1,3,1,,Ottimo,,,Milano,Duomo,PIAZZA CORDUSIO,45.465400000000002,9.1864000000000008
338, 170.000,100,2,45,1,5,5,5,0,1920,Ottimo,Autonomo,D,,,,45.494399999999999,9.1414200000000001
339, 120.000,,1,15,,,,1,0,,Nuovo,,G,Milano,Melchiorre Gioia,Via Giovanni Battista Pirelli,45.483699999999999,9.1980400000000007
340,"da  39.000,00",,2,29,,,,,0,,Ristrutturare,,,Milano,Barona,"Via Binda, 33",45.441398620000001,9.1551466000000001
341, 89.000,30,1,30,1,2,2,2,0,,Ottimo,Autonomo,F,,,,45.510300000000001,9.2462800000000005
342, 3.200.000,,,500,1,,,,0,,Buono,,C,Porta Venezia,,,45.475200000000001,9.2040100000000002
343, 485.000,,4,100,1,,,,0,,Buono,,,Gorla,,,45.504300000000001,9.2234499999999997
344, 368.000,,3,90,1,,,,0,,Buono,,,Gorla,,,45.508699999999997,9.2253299999999996
345, 210.000,100,2,45,1,2,2,,0,,Ottimo,Centralizzato,,Milano,Vigentino - Fatima,"Via Ermanno Wolf-Ferrari, 19",45.432048799999997,9.2056503299999992
346, 530.000,400,5,170,3,,1,7,1,1950,Buono,Centralizzato,G,Milano,San Siro,"Via Antonio Pianella, 4",45.470300000000002,9.1329999999999991
347, 280.000,58,2,51,2,T,,4,0,1930,Ottimo,Autonomo,D,Milano,Casoretto,Via monte nevoso 8,45.486699999999999,9.2342999999999993
348, 900.000,,,190,2,4,4,8,0,1966,Buono,Centralizzato,G,Milano,Isola,"Via Melchiorre Gioia, 65",45.488999999999997,9.2001000000000008
349, 365.000,150,3,92,1,1,1,5,1,1960,Buono,Centralizzato,F,Milano,Udine,"Via Carnia, 29",45.494100000000003,9.2355
350, 379.000,100,3,84,1,4,4,6,1,2021,Nuovo,Centralizzato,B,Milano,Famagosta,viale liguria 40,45.443600000000004,9.1735000000000007
351,Prezzo su richiesta,,,600,3+,4,4,,2,1900,Ottimo,Centralizzato,,Palestro,,,45.471200000000003,9.2042699999999993
352,"da  33.750,00",,1,35,,,,,0,,Ristrutturare,,,Milano,San Carlo,"Via Marta Navarra Bernstein , 10",45.462028500000002,9.1086635600000001
353, 370.000,166,3,100,1,8,8,8,1,,Buono,Centralizzato,,Milano,Lodi - Brenta,"Piazza Geremia Bonomelli, 4",45.441310880000003,9.2138900800000005
354, 249.000,108,2,52,1,6,6,7,1,2005,Ottimo,Autonomo,D,Milano,Precotto,Via Aristotele,45.510599999999997,9.2256
355, 448.000,250,3,103,2,6,6,6,1,1960,Buono,Centralizzato,G,Milano,Famagosta,viale liguria 40,45.443600000000004,9.1735000000000007
356, 420.000,200,3,100,1,2,2,7,0,1970,Ottimo,Centralizzato,F,Milano,Ghisolfa - Mac Mahon,"Via Mac Mahon, 75",45.493000000000002,9.1587999999999994
357, 219.500,100,2,53,1,1,1,2,1,2022,Nuovo,Autonomo,B,Milano,Piazzale Siena,"Via Edoardo Chinotto, 28",45.466999999999999,9.1271000000000004
358, 208.700,100,2,53,1,1 - 2,,2,1,2022,Nuovo,Autonomo,B,Milano,Piazzale Siena,"Via Edoardo Chinotto, 28",45.466999999999999,9.1271000000000004
359, 582.000,100,3,143,2,2 - 3,,2,1,2022,Nuovo,Autonomo,B,Milano,Piazzale Siena,"Via Edoardo Chinotto, 28",45.466999999999999,9.1271000000000004
360, 890.000,250,4,108,2,S - 1,,5,0,1940,Ottimo,Centralizzato,A+,Milano,De Angeli,"Via Federico Faruffini, 15",45.467799999999997,9.1486000000000001
361, 159.000,117,2,51,1,3,3,5,0,1962,Buono,Centralizzato,G,Milano,San Carlo,Via Giovanni di Breganze 6,45.461199999999998,9.1077999999999992
362, 437.000,100,3,108,1,1 - 2,,2,1,2022,Nuovo,Autonomo,B,Milano,Piazzale Siena,"Via Edoardo Chinotto, 28",45.466999999999999,9.1271000000000004
363, 378.500,100,4,137,2,1 - 2,,2,1,2022,Nuovo,Autonomo,B,Milano,Piazzale Siena,"Via Edoardo Chinotto, 28",45.466999999999999,9.1271000000000004
364, 389.000,60,3,82,2,1,1,4,0,1940,Ottimo,Autonomo,D,Milano,Rovereto,"Via Marco Aurelio, 64",45.494500000000002,9.2213999999999992
365, 237.000,70,2,44,1,S - R,,9,0,1960,Ottimo,Autonomo,D,Milano,Maggiolina,"Viale Evaristo Stefini, 3",45.496499999999997,9.2019000000000002
366, 285.000,80,2,58,1,T - R,,4,0,1930,Ottimo,Autonomo,D,Milano,Pasteur,"Via Padova, 29",45.489800000000002,9.2212999999999994
367, 245.000,70,2,45,1,S - R,,9,0,1960,Ottimo,Autonomo,D,Milano,Maggiolina,"Viale Evaristo Stefini, 3",45.496499999999997,9.2019000000000002
368, 153.000,100,1,37,1,T,,2,1,2022,Nuovo,Autonomo,B,Milano,Piazzale Siena,"Via Edoardo Chinotto, 28",45.466999999999999,9.1271000000000004
369, 498.500,100,3,120,2,T,,2,1,2022,Nuovo,Autonomo,B,Milano,Piazzale Siena,"Via Edoardo Chinotto, 28",45.466999999999999,9.1271000000000004
370, 1.230.000,500,4,150,3,2,2,7,0,1950,Ottimo,Centralizzato,E,Milano,Vincenzo Monti,"Via Vincenzo Monti, 79/3",45.4711,9.1690000000000005
371, 470.000,292,3,102,1,4,4,9,0,1960,Buono,Centralizzato,E,Milano,Centrale,"Via Melchiorre Gioia, 66",45.490099999999998,9.2020999999999997
372, 420.000,200,3,100,1,2,2,7,0,1970,Ottimo,Centralizzato,F,Milano,Ghisolfa - Mac Mahon,"Via Mac Mahon, 75",45.493000000000002,9.1587999999999994
373, 454.000,250,3,118,2,1,1,6,1,1960,Buono,Centralizzato,G,Milano,Famagosta,viale liguria 40,45.443600000000004,9.1735000000000007
374, 1.100.000,335,5,180,3+,5,5,5,2,2008,Ottimo,Autonomo,D,Milano,Sempione,Via Giovanni Prati,45.4786,9.1614000000000004
375, 496.000,250,3,118,2,2,2,6,1,1960,Buono,Centralizzato,G,Milano,Famagosta,viale liguria 40,45.443600000000004,9.1735000000000007
376, 245.000,70,2,46,1,S - R,,9,0,1960,Ottimo,Autonomo,D,Milano,Maggiolina,"Viale Evaristo Stefini, 3",45.496499999999997,9.2019000000000002
377, 263.000,120,2,51,1,S - 2,,4,0,1950,Ottimo,Centralizzato,D,Milano,Pasteur,"Via Termopili, 5",45.491300000000003,9.2200000000000006
378, 790.000,250,3,95,2,S - 1,,5,0,1940,Ottimo,Centralizzato,A+,Milano,De Angeli,"Via Federico Faruffini, 15",45.467799999999997,9.1486000000000001
379, 242.000,100,2,60,1,T,,2,1,2022,Nuovo,Autonomo,B,Milano,Piazzale Siena,"Via Edoardo Chinotto, 28",45.466999999999999,9.1271000000000004
380, 171.000,50,1,28,1,2,2,2,0,1930,Ottimo,Autonomo,D,Milano,Casoretto,"Via Accademia, 53",45.487900000000003,9.2278000000000002
381, 210.000,90,2,40,1,R,,4,0,1940,Ottimo,Centralizzato,D,Milano,Turro,"Via dei Valtorta, 22",45.499400000000001,9.2240000000000002
382, 260.000,80,2,49,1,3,3,4,0,1930,Ottimo,Autonomo,D,Milano,Rovereto,"Via Pietro Crespi, 12",45.493200000000002,9.2205999999999992
383, 210.000,100,2,46,1,S - 1,,4,0,1930,Ottimo,Centralizzato,D,Milano,Certosa,"Via Mac Mahon, 111",45.497199999999999,9.1532999999999998
384, 259.000,90,2,50,1,R,,7,0,1950,Ottimo,Centralizzato,D,Milano,Casoretto,"Via Nicola Antonio Porpora, 169",45.486199999999997,9.2331000000000003
385, 237.000,70,2,44,1,S - R,,5,0,1960,Ottimo,Autonomo,D,Milano,Maggiolina,"Viale Evaristo Stefini, 3",45.496499999999997,9.2019000000000002
386, 219.000,100,3,75,1,T,,5,0,1930,Buono,Autonomo,G,Milano,Rovereto,"Via Termopili, 36",45.493299999999998,9.2202000000000002
387, 307.000,100,2,75,1,T,,2,1,2022,Nuovo,Autonomo,B,Milano,Piazzale Siena,"Via Edoardo Chinotto, 28",45.466999999999999,9.1271000000000004
388, 199.000,175,2,61,1,4,4,4,0,1960,Ottimo,Centralizzato,G,Milano,San Carlo,Via Novara 143,45.474899999999998,9.1152999999999995
389, 259.000,50,2,55,1,R,,3,0,1940,Ottimo,Autonomo,D,Milano,Turro,"Via Angelo Mosso, 43",45.496699999999997,9.2260000000000009
390, 196.500,100,2,47,1,1 - 2,,2,1,2022,Nuovo,Autonomo,B,Milano,Piazzale Siena,"Via Edoardo Chinotto, 28",45.466999999999999,9.1271000000000004
391, 235.500,100,2,58,1,1 - 2,,2,1,2022,Nuovo,Autonomo,B,Milano,Piazzale Siena,"Via Edoardo Chinotto, 28",45.466999999999999,9.1271000000000004
392, 148.000,133,2,60,1,2,2,3,0,1950,Buono,Centralizzato,E,Milano,Bovisa,"Via Michele Pericle Negrotto, 44",45.504600000000003,9.1472999999999995
393, 115.000,108,2,50,1,2,2,3,0,1950,Buono,Centralizzato,E,Milano,Bovisa,"via Michele Pericle Negrotto, 44",45.504600000000003,9.1472999999999995
394, 359.000,209,3,122,2,2,2,8,0,1970,Ristrutturare,Centralizzato,,Milano,Udine,"Via Plezzo, 68",45.491100000000003,9.2323000000000004
395, 375.000,100,2,50,1,4,4,5,0,1800,Buono,Autonomo,G,Milano,Navigli - Darsena,via Vigevano,45.453000000000003,9.1731499999999997
396, 160.000,67,1,40,1,3,3,6,0,1950,Buono,Centralizzato,G,Milano,Istria,Via sarzana,45.503799999999998,9.1928999999999998
397, 299.000,142,3,95,1,3,3,7,0,1960,Ristrutturare,Centralizzato,G,Milano,Dergano,Via GIOACCHINO MURAT,45.5017,9.1897000000000002
398, 280.000,141,2,55,1,4,4,9,0,1959,Buono,Centralizzato,F,Milano,Frua,"Viale Ergisto Bezzi, 73",45.4619,9.1489999999999991
399, 260.000,108,2,52,1,6,6,9,0,2010,Ottimo,Centralizzato,E,Milano,Istria,Via Benefattori dell'Ospedale,45.504300000000001,9.1892999999999994
400, 199.000,200,3,75,1,3,3,4,0,1960,Buono,Centralizzato,G,Milano,Dergano,Via Privata Ernesto Reinach,45.503500000000003,9.1874400000000005
401, 390.000,150,3,80,1,3,3,5,0,1935,Buono,Centralizzato,G,Milano,Pezzotti - Meda,viale Tibaldi 74,45.445099999999996,9.1867199999999993
402, 265.000,166,3,65,1,1,1,5,0,1980,Ottimo,Centralizzato,G,Milano,Viale Ungheria - Mecenate,Piazza Ovidio,45.457000000000001,9.2418999999999993
403, 760.000,315,3,85,1,4,4,5,0,1950,Ottimo,Centralizzato,G,Milano,Moscova,"Via della Moscova, 66",45.478299999999997,9.1826000000000008
404, 229.000,108,2,50,1,1,1,4,0,1930,Ottimo,Autonomo,E,Milano,Pasteur,"Viale Monza, 22",45.4895,9.2179000000000002
405, 259.000,165,3,70,1,2,2,5,0,1968,Ottimo,Centralizzato,E,Milano,Certosa,Viale Certosa,45.493200000000002,9.1446000000000005
406,Prezzo su richiesta,100,2,47,1,S - 1,,4,0,1930,Ottimo,Centralizzato,D,Milano,Certosa,"Via Mac Mahon, 111",45.497199999999999,9.1532999999999998
407, 135.000,50,2,55,1,1,1,1,2,1920,Ottimo,Autonomo,G,Milano,Cascina Gobba,"via padova, 393",45.512799999999999,9.2610600000000005
408, 135.000,80,2,47,1,2,2,4,0,1920,Ristrutturare,Autonomo,G,Milano,Rovereto,"Viale Monza, 92",45.497599999999998,9.2203999999999997
409, 780.000,250,4,140,2,3,3,6,0,1970,Ristrutturare,Centralizzato,F,Milano,Pasteur,Viale Brianza,45.4876,9.2133000000000003
410, 218.000,120,1,40,1,R,,5,0,1900,Ottimo,Centralizzato,G,Milano,Porta Venezia,Viale Tunisia,45.478000000000002,9.2039000000000009
411, 180.000,200,3,90,1,3,3,8,0,1970,Buono,Centralizzato,G,Milano,Affori,via ALESSANDRO LITTA MODIGNANI 111,45.520299999999999,9.1541899999999998
412, 400.000,110,3,85,1,R,,5,0,1900,Ottimo,Centralizzato,G,Milano,Centrale,Piazza Cincinnato,45.479999999999997,9.2041000000000004
413, 125.000,88,1,45,1,1,1,7,0,1960,Ristrutturare,Centralizzato,G,Milano,Bovisa,"Via Giovanni Arrivabene, 15",45.499200000000002,9.1666000000000007
414, 800.000,100,3,96,2,4,4,4,0,1900,Buono,Autonomo,F,Milano,Arco della Pace,Via Luigi Cagnola,45.477800000000002,9.1727000000000007
415, 1.870.000,250,3,220,3,1,1,2,1,1900,Ottimo,Autonomo,E,Milano,Navigli - Darsena,Alzaia Naviglio Grande,45.449300000000001,9.1628000000000007
416, 2.400.000,1,5,190,3,3,3,5,1,1960,Nuovo,Centralizzato,B,Milano,Duomo,via Broletto,45.468000000000004,9.1854499999999994
417, 119.000,100,1,42,1,R,,4,0,1950,Buono,Centralizzato,G,Milano,Dergano,Via Conte Verde,45.503700000000002,9.1789000000000005
418, 165.000,50,3,88,1,1,1,1,1,1920,Ottimo,Autonomo,G,Milano,Cascina Gobba,"via padova, 393",45.512799999999999,9.2610600000000005
419, 220.000,83,2,91,1,2,2,2,0,1967,Buono,Autonomo,G,Milano,Gratosoglio,"Via Icilio Calzolari, 3",45.413699999999999,9.1643000000000008
420, 1.100.000,370,4,180,3,5,5,5,2,2008,Ottimo,Autonomo,G,Milano,Sempione,Via Giovanni Prati,45.4786,9.1614000000000004
421, 590.000,308,5,154,2,2,2,6,0,1934,Buono,Centralizzato,F,Milano,Maggiolina,"Piazzale Istria, 8",45.5015,9.1988000000000003
422, 225.000,100,3,75,2,S - R,,6,0,1960,Ottimo,Centralizzato,F,Milano,Bruzzano,"Piazza Bruzzano, 5",45.527099999999997,9.1736000000000004
423, 390.000,100,2,45,1,3,3,4,0,2020,Ottimo,Autonomo,F,Milano,Brera,Via Brera,45.470999999999997,9.1875999999999998
424, 175.000,80,1,27,1,3,3,5,0,1960,Ottimo,Autonomo,F,Milano,Centrale,Via Napo Torriani,45.4831,9.2032000000000007
425, 200.000,180,3,65,1,1,1,8,0,1960,Ristrutturare,Centralizzato,F,Milano,Affori,"Via Vittorio Scialoia, 9",45.511400000000002,9.1790000000000003
426, 595.000,500,,233,3,R,,5,0,1960,Buono,Centralizzato,G,Milano,Pasteur,"Via Luigi Varanini, 29",45.493099999999998,9.2140000000000004
427, 250.000,60,2,53,1,T,,6,0,1960,Ottimo,Autonomo,D,Milano,Ticinese,via pietro panzeri,45.453299999999999,9.1784499999999998
428, 225.000,100,3,75,2,S - R,,6,0,1960,Ottimo,Centralizzato,F,Milano,Bruzzano,Piazza Bruzzano,45.527200000000001,9.1738
429, 600.000,125,3,115,2,2,2,7,2,2001,Ottimo,Autonomo,D,Milano,Turro,Via Jean Jaurès,45.501600000000003,9.2196999999999996
430, 375.000,200,3,112,1,7,7,7,0,1970,Buono,Centralizzato,G,Milano,Prato Centenaro,"viale ca' granda, 16",45.5077,9.1967999999999996
431, 529.000,100,3,82,1,5,5,5,0,2004,Ottimo,Autonomo,B,Milano,Isola,"Via Luigi Porro Lambertenghi, 28",45.488900000000001,9.1881000000000004
432, 390.000,150,1,75,,,,3,0,1900,Buono,Autonomo,G,Milano,Navigli - Darsena,via Vigevano,45.453000000000003,9.1731499999999997
433, 390.000,120,3,90,1,R,,5,0,1960,Ottimo,Centralizzato,G,Milano,Pasteur,Viale Brianza,45.4876,9.2133000000000003
434, 800.000,100,3,95,2,5,5,5,0,,Buono,Autonomo,B,Milano,Navigli - Darsena,via Tortona,45.453000000000003,9.1667199999999998
435, 190.000,130,2,52,1,5,5,7,0,1960,Buono,Centralizzato,G,Milano,Udine,via Monfalcone,45.493499999999997,9.2376799999999992
436, 150.000,116,2,42,1,5,5,7,0,1960,Buono,Centralizzato,G,Milano,Udine,via Monfalcone,45.493499999999997,9.2376799999999992
437, 185.000,130,2,49,1,5,5,7,0,1960,Buono,Centralizzato,G,Milano,Udine,via Via Manfalcone,45.493499999999997,9.2376799999999992
438, 225.000,100,3,75,2,S - R,,7,0,1960,Ottimo,Centralizzato,F,Milano,Bruzzano,"Piazza Bruzzano, 5",45.527099999999997,9.1736000000000004
439, 430.000,135,3,93,1,T,,4,0,1930,Ristrutturare,Autonomo,G,Milano,Corso Genova,via Gaudenzio Ferrari 3,45.4559,9.1754200000000008
440, 575.000,100,4,96,1,T,,2,0,1940,Buono,Autonomo,G,Milano,Buenos Aires,Via Mercadante 12,45.483600000000003,9.2124799999999993
441, 165.000,150,2,77,1,1,1,5,1,1960,Ottimo,Centralizzato,E,Milano,Quarto Oggiaro,"Via Arturo Graf, 36",45.512999999999998,9.1427999999999994
442, 520.000,50,2,70,1,2,2,4,0,1920,Ottimo,Autonomo,G,Milano,Carrobbio,Via Gian Giacomo Mora,45.4589,9.1797000000000004
443, 149.000,70,1,42,1,3,3,5,0,1920,Buono,Autonomo,G,Milano,Turro,"Viale Monza, 114",45.500399999999999,9.2211999999999996
444, 245.000,70,2,46,1,1,1,5,0,1930,Buono,Autonomo,F,Milano,Porta Romana - Medaglie d'Oro,"Viale Umbria, 21",45.449800000000003,9.2118000000000002
445, 490.000,430,5,174,2,4,4,9,0,1950,Ristrutturare,Centralizzato,G,Milano,Ghisolfa - Mac Mahon,"Via Monte Generoso, 8/A",45.4923,9.1556999999999995
446, 1.790.000,540,5,171,3,S - 1,,4,1,1900,Ottimo,Centralizzato,G,San Vittore,,,45.463799999999999,9.1685999999999996
447, 790.000,125,4,110,2,1,1,2,0,1900,Ottimo,Autonomo,F,Milano,Paolo Sarpi,via Niccolini 0,45.481699999999996,9.1772500000000008
448, 199.000,142,3,80,1,4,4,4,0,1960,Buono,Centralizzato,E,Milano,Dergano,Via Legnone,45.501199999999997,9.1809999999999992
449, 155.000,,3,75,1,1,1,4,0,1930,Ristrutturare,Autonomo,G,Milano,Chiesa Rossa,Via della Chiesa Rossa,45.427999999999997,9.1707999999999998
450, 295.000,75,2,45,1,1,1,4,0,1950,Buono,Autonomo,G,Milano,Ascanio Sforza,corso San Gottardo,45.449199999999998,9.1798000000000002
451, 950.000,350,3,90,1,3,3,5,0,1940,Ristrutturare,Centralizzato,G,Milano,Corso Genova,via Ausonio,45.4589,9.1730999999999998
452, 245.000,185,2,66,1,R,,6,0,1930,Ristrutturare,Centralizzato,G,Milano,Martini - Insubria,"Via Gaetano Strigelli, 5",45.456099999999999,9.2177000000000007
453, 295.000,75,2,45,1,1,1,4,0,1950,Buono,Autonomo,G,Milano,Ascanio Sforza,Via Cardinale Ascanio Sforza,45.448999999999998,9.1774000000000004
454, 295.000,70,2,60,1,S,,8,0,1970,Nuovo,Autonomo,C,Milano,Washington,via Washington,45.4617,9.1548999999999996
455, 270.000,100,2,51,1,R,,6,0,1970,Ottimo,Centralizzato,E,Milano,Cenisio,"Via Mac Mahon, 7/A",45.488500000000002,9.1641999999999992
456, 770.000,,2,115,1,6,6,4,2,1980,Ottimo,Autonomo,F,Milano,Farini,Via Dina Galli,45.491700000000002,9.1829000000000001
457, 297.000,150,2,50,1,2,2,5,0,1900,Ottimo,Centralizzato,G,Milano,Repubblica,Piazza della Repubblica,45.479900000000001,9.1990999999999996
458, 245.000,120,1,35,1,2,2,5,0,1900,Ottimo,Centralizzato,G,Milano,Garibaldi - Corso Como,Piazza Gae Aulenti,45.4831,9.1892999999999994
459, 1.480.000,500,5,220,2,2,2,6,0,1938,Ottimo,Centralizzato,G,Milano,Sempione,"Corso Sempione, 61",45.4833,9.1616
460, 389.000,220,3,80,1,R,,7,0,1935,Ottimo,Centralizzato,G,Milano,Centrale,"Via Giovanni Pierluigi da Palestrina, 20",45.486400000000003,9.2117000000000004
461, 310.000,120,2,55,1,3,3,4,0,2000,Ottimo,Autonomo,A,Milano,Amendola - Buonarroti,"Via Carlo Ravizza, 39",45.470199999999998,9.1489999999999991
462, 890.000,167,3,130,2,1,1,4,0,1929,Ottimo,Autonomo,E,Milano,Paolo Sarpi,"Via Luca Signorelli, 17",45.482399999999998,9.1727000000000007
463, 510.000,230,2,113,1,1,1,5,0,1900,Ristrutturare,Centralizzato,F,Milano,Buenos Aires,"Via Vitruvio, 37",45.482100000000003,9.2070000000000007
464, 310.000,150,2,50,1,7,7,10,0,1900,Ottimo,Centralizzato,G,Milano,Buenos Aires,Corso Buenos Aires,45.480499999999999,9.2111999999999998
465, 550.000,200,3,85,1,2,2,3,0,1960,Buono,,G,Milano,Quadronno - Crocetta,Via Privata Reggio,45.456400000000002,9.2030899999999995
466, 1.750.000,833,4,230,2,1,1,8,2,1970,Buono,Centralizzato,F,Milano,Quadronno - Crocetta,Largo della Crocetta,45.456099999999999,9.1958000000000002
467, 720.000,2,3,95,2,6,6,7,0,1960,Ottimo,Centralizzato,F,Milano,Indipendenza,Corso Indipendenza,45.467700000000001,9.2132000000000005
468, 420.000,,2,70,1,3,3,4,0,2000,Ottimo,Autonomo,A,Milano,Amendola - Buonarroti,"Via Carlo Ravizza, 39",45.470199999999998,9.1489999999999991
469, 480.000,250,2,60,1,3,3,6,0,2017,Nuovo,Centralizzato,A,Milano,Paolo Sarpi,"Via Pietro Moscati, 9/A",45.479900000000001,9.1705000000000005
470, 160.000,83,2,68,1,16,16,17,1,1990,Buono,Autonomo,G,Milano,Giambellino,"Via Francesco Gonin, 69",45.440800000000003,9.1189999999999998
471, 1.860.000,667,,282,3+,8,8,8,0,1940,Ottimo,Centralizzato,G,Milano,Amendola - Buonarroti,"Via Domenichino, 11",45.473100000000002,9.1494999999999997
472, 1.045.000,460,4,155,2,1,1,7,0,1940,Ristrutturare,Centralizzato,G,Milano,Guastalla,"Viale Bianca Maria, 5",45.463200000000001,9.2060999999999993
473, 395.000,125,2,55,1,4,4,5,1,1945,Buono,Autonomo,G,Milano,De Angeli,Via Correggio,45.468400000000003,9.1486999999999998
474, 339.000,150,2,42,1,1,1,5,0,1995,Ottimo,Centralizzato,G,Milano,Duomo,"Via Torino, 22",45.462600000000002,9.1868999999999996
475, 324.000,180,4,100,1,2,2,4,1,1960,Nuovo,Centralizzato,G,Milano,Bisceglie,via Lucca,45.4557,9.1112500000000001
476, 350.000,120,2,70,1,1,1,4,0,1920,Buono,Autonomo,E,Milano,Martini - Insubria,viale Umbria 50,45.452800000000003,9.2147699999999997
477, 329.000,125,1,235,,,,3,0,1900,Buono,Autonomo,G,Milano,Parco Trotter,"Via Padova, 79",45.493499999999997,9.2262000000000004
478, 450.000,250,3,90,1,5,5,8,1,1969,Ristrutturare,Centralizzato,G,Milano,Monte Rosa - Lotto,"Via Francesco Albani, 58",45.482500000000002,9.1445000000000007
479, 325.000,200,2,75,1,1,1,5,0,1950,Buono,Centralizzato,F,Milano,Monte Rosa - Lotto,via Veniero 40,45.481099999999998,9.1445500000000006
480, 169.000,200,2,77,1,1,1,4,0,1955,Buono,Centralizzato,G,Milano,Ponte Nuovo,"Via Golfo degli Aranci, 13",45.505600000000001,9.2350999999999992
481, 330.000,60,2,45,1,1,1,2,0,1900,Buono,Autonomo,G,Milano,Solari,Via Savona,45.453800000000001,9.1628000000000007
482, 600.000,125,5,131,1,T,,,0,1900,Buono,Autonomo,G,Milano,Bocconi,via Cesare Balbo,45.448599999999999,9.1959
483, 860.000,550,3,200,3,1,1,1,1,1900,Ottimo,Autonomo,F,Milano,San Siro,"Piazzale dello Sport, 26",45.480400000000003,9.1257000000000001
484, 310.000,200,3,82,1,,2,6,0,1970,Ottimo,Centralizzato,G,Milano,Chiesa Rossa,via Lassalle,45.430999999999997,9.1826000000000008
485, 380.000,100,2,60,1,T,,4,0,1940,Nuovo,Centralizzato,A1,Milano,Monte Rosa - Lotto,"Via Monte Bianco, 4",45.474899999999998,9.1506000000000007
486, 128.000,100,1,35,1,5,5,6,0,1970,Buono,Centralizzato,G,Milano,Barona,Via Ambrogio Binda,45.442599999999999,9.1549999999999994
487, 155.000,,2,60,1,T,,1,0,,Ottimo,Autonomo,G,Milano,Precotto,Via Licurgo,45.509700000000002,9.2220999999999993
488, 675.000,275,3,135,2,1,1,4,1,,Ottimo,Autonomo,,Milano,San Siro,"Via dei Gradenigo, 3",45.477600000000002,9.1323000000000008
489, 290.000,158,2,60,1,1,1,4,0,1940,Ristrutturare,Centralizzato,G,Milano,Centrale,via Mauro Macchi 63,45.486499999999999,9.2092500000000008
490, 330.000,100,2,71,1,T,,3,0,1960,Nuovo,Centralizzato,,Milano,Plebisciti - Susa,via Ostiglia 0,45.4649,9.2266499999999994
491, 820.000,,3,86,1,3,3,8,0,1950,Ristrutturare,Centralizzato,C,Milano,Guastalla,"Corso di Porta Vittoria, 54",45.4621,9.2058
492, 235.000,50,2,54,1,T - R,,2,0,2010,Ottimo,Autonomo,G,Milano,Pezzotti - Meda,"Viale Giovanni da Cermenate, 7",45.438000000000002,9.1775000000000002
493, 265.000,60,2,45,1,2,2,4,0,2020,Nuovo,Centralizzato,A3,Milano,Maggiolina,Via Angelo Fava,45.498100000000001,9.2049000000000003
494, 290.000,80,2,40,1,T,,5,0,1920,Ottimo,Autonomo,G,Milano,Porta Romana - Medaglie d'Oro,"Via Atto Vannucci, 3",45.4495,9.1979000000000006
495, 325.000,90,2,58,1,3,3,4,0,1940,Buono,Centralizzato,F,Milano,Solari,"Via Sirte, 11",45.454900000000002,9.1536000000000008
496, 2.200.000,800,5,253,3,8 - 9,,9,0,1968,Ristrutturare,Centralizzato,G,Sempione,,,45.481000000000002,9.1616999999999997
497, 2.900.000,1,,420,3,1,1,4,1,1930,Buono,Centralizzato,D,Milano,Pagano,via ariosto,45.468200000000003,9.1654800000000005
498, 133.000,67,2,56,1,2,2,4,0,1930,Buono,Autonomo,G,Milano,Cimiano,"Via Padova, 133",45.498100000000001,9.2324000000000002
499, 555.000,250,4,125,2,2,2,6,0,1965,Ottimo,Centralizzato,,Milano,San Siro,"Via Mario Morgantini, 29",45.468800000000002,9.1326999999999998
500, 650.000,300,4,140,2,7,7,7,0,1950,Ristrutturare,Centralizzato,G,Milano,Lodi - Brenta,"Via Venosa, 2",45.449800000000003,9.2211999999999996
501, 259.000,50,2,60,1,1,1,4,0,,Ottimo,Autonomo,G,Milano,Ortica,Via Marco Tullio Tirone,45.471699999999998,9.2401999999999997
502, 159.000,,2,50,1,3,3,3,0,,Ottimo,Autonomo,G,Milano,Certosa,Viale Carlo Espinasse,45.495800000000003,9.1432000000000002
503, 339.000,208,3,105,2,7,7,8,1,1983,Ottimo,Centralizzato,G,Milano,Bignami - Ponale,"Via Empoli, 5",45.5242,9.2050999999999998
504, 695.000,542,4,145,2,6,6,7,0,1955,Ottimo,Centralizzato,F,Milano,Buenos Aires,via Andrea Doria 48,45.485799999999998,9.2144899999999996
505, 145.000,70,1,28,1,1,1,4,0,1950,Ottimo,Autonomo,G,Ripamonti,,,45.439,9.1998999999999995
506, 260.000,120,3,80,2,5,5,6,0,1960,Buono,Centralizzato,G,Milano,San Siro,Via Pier Alessandro Paravia,45.472799999999999,9.1333000000000002
507, 150.000,100,1,33,1,T,,6,1,2013,Ristrutturare,Centralizzato,A,Milano,Bovisa,"Via Enrico Cosenz, 54",45.507199999999997,9.1620000000000008
508, 360.000,150,3,75,1,1,1,8,0,1965,Buono,Centralizzato,G,Milano,Solari,Via Savona,45.453800000000001,9.1628000000000007
509, 165.000,1,1,45,1,T,,1,0,2021,Nuovo,Autonomo,,Milano,Turro,"Via Jean Jaurès, 17",45.501600000000003,9.2188999999999997
510, 409.000,133,2,68,1,6,6,6,0,1950,Ottimo,Centralizzato,F,Milano,Città Studi,Via Canaletto,45.469299999999997,9.2284000000000006
511, 189.000,165,2,65,1,7,7,7,0,1960,Buono,Centralizzato,G,Milano,Tre Castelli - Faenza,Via Bari,45.438800000000001,9.1491000000000007
512, 349.000,200,3,106,2,8,8,8,0,1990,Buono,Autonomo,F,Milano,Tre Castelli - Faenza,Via Fernando Santi 5,45.437100000000001,9.1234999999999999
513, 365.000,258,2,70,1,6,6,8,0,1955,Buono,Centralizzato,G,Milano,Cenisio,"via cenisio, 59",45.4876,9.1627100000000006
514, 190.000,120,2,50,1,2,2,5,0,1970,Ottimo,Centralizzato,G,Milano,Cermenate - Abbiategrasso,"Via Francesco De Sanctis, 61",45.436199999999999,9.1830999999999996
515, 149.000,83,2,55,1,4,4,4,0,1940,Buono,Autonomo,F,Milano,Tre Castelli - Faenza,Via Lodovico Il Moro 135,45.4422,9.1333599999999997
516, 215.000,200,3,90,1,5,5,7,1,,Ottimo,Centralizzato,,Milano,Gallaratese,"Via Francesco Cilea, 82",45.497,9.1027000000000005
517, 195.000,200,3,85,2,T,,7,0,1950,Nuovo,Centralizzato,,Milano,Cermenate - Abbiategrasso,"Via Attilio Momigliano, 1",45.433500000000002,9.1788000000000007
518, 240.000,65,2,55,1,T,,1,0,2020,Nuovo,Autonomo,A,Milano,Cermenate - Abbiategrasso,Via Francesco De Sanctis,45.436100000000003,9.1800999999999995
519, 190.000,200,3,90,1,1,1,6,0,1960,Buono,Centralizzato,G,Milano,Viale Ungheria - Mecenate,"Viale Ungheria, 19",45.446199999999997,9.2509999999999994
520, 488.000,350,3,108,2,2,2,8,0,1960,Ristrutturare,Centralizzato,,Milano,Centrale,"Via Melchiorre Gioia, 66",45.490099999999998,9.2020999999999997
521, 830.000,500,5,145,2,3,3,3,0,1960,Buono,Centralizzato,G,Milano,San Siro,Via Gavirate,45.477699999999999,9.1405999999999992
522, 360.000,150,2,75,1,1,1,8,0,1965,Buono,Centralizzato,G,Milano,Solari,Via Savona,45.453800000000001,9.1628000000000007
523, 1.750.000,833,4,230,2,1,1,8,2,1970,Buono,Centralizzato,F,Milano,Quadronno - Crocetta,Via Quadronno,45.4542,9.1949000000000005
524, 320.000,,3,85,1,5,5,6,0,,Buono,Centralizzato,,Milano,Istria,"Via Latisana, 4",45.502600000000001,9.1976300000000002
525, 169.000,,2,50,1,5,5,5,0,,Ottimo,Autonomo,G,Milano,Ghisolfa - Mac Mahon,Viale Monte Ceneri,45.493200000000002,9.1564999999999994
526, 170.000,,2,50,1,T,,6,0,2021,Nuovo,Centralizzato,C,Milano,Dergano,Via Livigno,45.500900000000001,9.1782000000000004
527, 890.000,250,3,88,1,5,5,6,0,1900,Ottimo,Autonomo,A,Milano,Corso Genova,Via Conca del Naviglio,45.456600000000002,9.1774000000000004
528, 285.000,130,2,50,1,2,2,5,1,2018,Nuovo,Autonomo,A+,Milano,Bovisa,"Via Enrico Cosenz, 13",45.5075,9.1660000000000004
529, 330.000,50,2,50,1,1,1,4,0,1940,Buono,Autonomo,F,Milano,Isola,"Via Filippo Sassetti, 15",45.486499999999999,9.1938999999999993
530, 450.000,210,2,78,1,1,1,6,1,1970,Ottimo,Centralizzato,G,Milano,Zara,"Via Lario, 5",45.491300000000003,9.1897000000000002
531,Prezzo su richiesta,108,2,66,2,2,2,6,1,2006,Buono,Autonomo,D,Milano,Quarto Cagnino,"via fratelli Bozzi, 18",45.474899999999998,9.1130499999999994
532, 236.000,108,2,60,1,R,,5,0,1970,Ottimo,Centralizzato,G,Milano,Vigentino - Fatima,"Via Val di Sole, 11",45.431899999999999,9.2029999999999994
533, 148.000,70,1,38,1,1,1,5,0,2011,Ottimo,Centralizzato,B,Milano,Dergano,Via Filippo Baldinucci,45.504800000000003,9.1739999999999995
534, 270.000,200,4,110,1,1,1,4,0,1952,Ristrutturare,Centralizzato,,Milano,Corvetto,"Via Vittorio Barzoni, 6",45.437100000000001,9.2286000000000001
535, 215.000,,3,85,1,5,5,7,1,1990,Buono,Centralizzato,,Milano,Gratosoglio,Via Achille Feraboli,45.414700000000003,9.1697000000000006
536, 249.000,,1,35,1,7,7,7,0,1900,Ottimo,Centralizzato,,Milano,Plebisciti - Susa,Viale dei Mille,45.470500000000001,9.2173999999999996
537, 320.000,120,3,80,1,2,2,5,0,1970,Ottimo,Centralizzato,F,Chiesa Rossa,,,45.430700000000002,9.1844000000000001
538, 199.000,,2,45,1,3,3,,0,,Ottimo,Autonomo,,Milano,Pasteur,viale monza 49,45.491599999999998,9.2180900000000001
539, 810.000,250,3,140,1,7,7,8,0,1970,Ottimo,Centralizzato,E,Milano,Centrale,Piazza Luigi di Savoia,45.4846,9.2060999999999993
540,Prezzo su richiesta,333,3,135,2,4,4,4,1,1960,Ottimo,Centralizzato,G,Milano,Buenos Aires,piazza Argentina,45.484200000000001,9.2148000000000003
541, 268.000,140,2,58,1,4,4,4,1,1960,Ottimo,Centralizzato,,Milano,Argonne - Corsica,Via Lomellina,45.463700000000003,9.2302
542, 495.000,290,4,130,2,1,1,6,0,1960,Ristrutturare,Centralizzato,G,Milano,Casoretto,via Porpora,45.4861,9.2256900000000002
543, 599.000,200,3,90,2,5,5,7,0,1950,Ottimo,Centralizzato,F,Milano,Zara,"Viale Stelvio, 18",45.493200000000002,9.1912000000000003
544, 185.000,100,1,50,1,4,4,4,2,2008,Ottimo,Autonomo,G,Milano,Certosa,Viale Carlo Espinasse,45.495800000000003,9.1432000000000002
545, 419.000,125,4,135,2,3,3,4,0,2015,Nuovo,Centralizzato,B,Milano,Bisceglie,"Via Sella Nuova , 31",45.459000000000003,9.1098599999999994
546, 770.000,300,4,125,3,1,1,4,1,,Ottimo,Centralizzato,G,Buenos Aires,,,45.4831,9.2090999999999994
547, 249.000,,1,35,1,7,7,7,0,1900,Ottimo,Centralizzato,,Milano,Indipendenza,Viale Giustiniano,45.472299999999997,9.2161000000000008
548, 399.000,180,3,80,1,2,2,7,0,1960,Ottimo,Centralizzato,F,Milano,Città Studi,"Via Ajaccio, 1",45.4694,9.2348999999999997
549, 980.000,450,4,157,2,1,1,6,0,1970,Buono,Centralizzato,G,Milano,Arco della Pace,"Via Giovanni Gherardini, 2",45.476900000000001,9.1700999999999997
550, 360.000,,1,34,1,1,1,4,0,1800,Ottimo,Autonomo,G,Milano,Lanza,"Corso Giuseppe Garibaldi, 55",45.474299999999999,9.1834000000000007
551, 690.000,200,3,100,2,5,5,7,0,1965,Ottimo,Centralizzato,G,Milano,Ticinese,Viale Gian Galeazzo,45.4527,9.1829000000000001
552, 745.000,350,,170 m² | commerciale 179,3,2,2,,1,1970,Nuovo,Centralizzato,E,Milano,Vigentino - Fatima,via Wolf Ferrari 19,45.432000000000002,9.2056500000000003
553, 495.000,,3,75,1,1,1,4,0,1906,Ottimo,Autonomo,E,Milano,Sempione,Via Piero della Francesca,45.484699999999997,9.1625999999999994
554, 990.000,,,790,2,1,1,3,1,,Buono,Autonomo,G,Milano,Trenno,via fratelli Rizzardi 3,45.492100000000001,9.1010000000000009
555,"da  34.500,00",,1,30,1,1,4,6,0,1965,Ristrutturare,Centralizzato,G,Milano,Viale Ungheria - Mecenate,"Via Mecenate, 4",45.45674133,9.2424898100000004
556, 120.000,160,2,40,1,6,6,6,1,1950,Buono,Centralizzato,G,Milano,Bovisa,via Riccione 9,45.500700000000002,9.1506600000000002
557, 240.000,,1,50,1,1,1,,0,,Ottimo,Autonomo,,Milano,Corvetto,via bacchiglione,45.442799999999998,9.2203999999999997
558, 255.000,50,1,30,1,5,5,5,0,1900,Ottimo,Autonomo,G,Milano,Montenero,"Via Bergamo, 3",45.457500000000003,9.2065999999999999
559, 220.000,83,2,55,1,3,3,5,0,1930,Buono,Autonomo,E,Milano,Casoretto,"Via PORPORA, 109",45.4861,9.2272800000000004
560, 550.000,,3,110,2,,,9,1,,Ottimo,Autonomo,C,Milano,Cermenate - Abbiategrasso,"Via Francesco De Sanctis, 106",45.435699999999997,9.1854700000000005
561, 1.490.000,,5,270,3,5,5,6,0,2020,Nuovo,Centralizzato,A3,Milano,Paolo Sarpi,Piazzale Cimitero Monumentale,45.484099999999998,9.1789000000000005
562, 310.000,100,2,45,1,1,1,4,0,,Ottimo,Centralizzato,F,Milano,Cenisio,"Via Tartaglia, 17",45.486600000000003,9.1696600000000004
563, 449.000,,2,83,1,T,,7,0,1960,Ottimo,Centralizzato,G,Milano,Buenos Aires,"Corso Buenos Aires, 77",45.485199999999999,9.2155400000000007
564, 540.000,200,3,111,2,4,4,,0,,Nuovo,Autonomo,E,Milano,Giambellino,"Via Privata Metauro, 10",45.451900000000002,9.1496399999999998
565, 599.000,,3,142,2,T,,7,0,1960,Ottimo,Centralizzato,G,Milano,Buenos Aires,"Corso Buenos Aires, 77",45.485199999999999,9.2155400000000007
566, 124.000,110,1,35,1,1,1,4,0,1960,Ottimo,Centralizzato,F,Milano,Affori,Via Don Bartolomeo Grazioli,45.508699999999997,9.1724999999999994
567, 659.100,,4,154,2,5 - 6,,5,1,2022,Nuovo,Autonomo,A2,Milano,Bovisa,Via Giuseppe Candiani,45.5032,9.1662999999999997
568, 620.000,,3,115,2,T,,3,0,1900,Ottimo,Autonomo,G,Milano,De Angeli,Via Vittoria Colonna,45.467700000000001,9.1493000000000002
569, 260.000,,2,60,1,R,,7,0,1960,Ottimo,Centralizzato,G,Milano,Bologna - Sulmona,Via Giuseppe Avezzana,45.440600000000003,9.2284000000000006
570, 379.000,,2,73,1,T,,7,0,1960,Ottimo,Centralizzato,G,Milano,Buenos Aires,"Corso Buenos Aires, 77",45.485199999999999,9.2155400000000007
571, 540.000,200,4,111,2,4,4,,0,,Nuovo,Autonomo,E,Milano,Giambellino,"Via Privata Metauro, 10",45.451900000000002,9.1496399999999998
572, 169.000,,2,47,1,1,1,2,0,1970,Ottimo,Autonomo,G,Milano,Sempione,Piazza Firenze,45.487000000000002,9.1568000000000005
573, 299.000,100,2,50,1,T,,4,0,,Nuovo,Centralizzato,C,Milano,Montenero,"C.so XXII Marzo, 4",45.4621,9.20824
574, 395.000,150,3,77,2,2,2,,0,,Ristrutturare,Centralizzato,C,Milano,Ghisolfa - Mac Mahon,"Via Melchiorre Delfico, 15",45.493899999999996,9.1631
575, 890.000,,3,130,,,3,6,0,,Buono,Centralizzato,G,Milano,Quadronno - Crocetta,Largo della Crocetta,45.456099999999999,9.1958000000000002
576, 125.000,36,2,55,1,1,1,,0,,Buono,Autonomo,G,Milano,Ponte Nuovo,"De Marchi Gherini , 5",45.510300000000001,9.2462800000000005
577, 240.000,200,3,110,2,R,,2,0,1960,Ottimo,Centralizzato,G,Milano,Affori,"Via degli Artaria, 4",45.521799999999999,9.1714000000000002
578, 589.500,,4,133,2,6,6,6,1,2022,Nuovo,Autonomo,A2,Milano,Bovisa,Via Giuseppe Candiani,45.503,9.1658000000000008
579, 345.000,160,2,70,1,4,4,4,0,1930,Buono,Autonomo,G,Città Studi,,,45.4861,9.2187999999999999
580, 462.500,400,3,114,2,3,3,6,1,,Buono,Centralizzato,G,Milano,Navigli - Darsena,Viale Liguria,45.443899999999999,9.1718799999999998
581, 449.000,400,3,114,2,2,2,6,1,,Buono,Centralizzato,G,Milano,Navigli - Darsena,Viale Liguria,45.443899999999999,9.1718799999999998
582, 528.800,,3,121,2,6,6,6,1,2022,Nuovo,Autonomo,A2,Milano,Bovisa,Via Giuseppe Candiani,45.5032,9.1655999999999995
583, 431.500,400,3,97,2,6,6,6,1,,Buono,Centralizzato,G,Milano,Navigli - Darsena,Viale Liguria,45.443899999999999,9.1718799999999998
584, 290.000,,2,47,1,T,,2,0,2016,Ristrutturare,Autonomo,G,Milano,Lodi - Brenta,"Via Macerata, 4",45.444200000000002,9.2112999999999996
585, 463.000,400,3,114,2,1,1,6,1,,Buono,Centralizzato,G,Milano,Navigli - Darsena,Viale Liguria,45.443899999999999,9.1718799999999998
586, 1.295.000,650,4,160,2,5,5,6,0,1980,Buono,Centralizzato,G,Borgogna - Largo Augusto,,,45.463000000000001,9.1964000000000006
587, 435.000,180,3,78,2,S,,3,0,1970,Ottimo,Centralizzato,G,Milano,Quadronno - Crocetta,C.so di Porta Romana,45.455300000000001,9.1973500000000001
588,"da  41.944,00",,2,35,1,1,,,0,,Buono,,,Milano,Affori,Via Novaro 1,45.519309999999997,9.1699495300000002
589, 610.000,340,3,90,1,5,5,6,0,1920,Buono,Centralizzato,F,Milano,Piave - Tricolore,Viale Premuda,45.466000000000001,9.2071000000000005
590, 948.000,315,4,138,2,3,3,8,1,1972,Ottimo,Centralizzato,F,Milano,Frua,"Via Giuseppe Frua, 21",45.4649,9.1478000000000002
591, 1.295.000,650,4,160,2,5,5,6,0,1980,Buono,Centralizzato,G,Duomo,,,45.461500000000001,9.1908999999999992
592, 476.500,400,3,114,2,4,4,6,1,,Buono,Centralizzato,G,Milano,Navigli - Darsena,Viale Liguria,45.443899999999999,9.1718799999999998
593,"da  329.250,00",,3,140,2,1,1,5,0,,Ristrutturare,Centralizzato,G,Milano,Washington,VIA MONFERRATO,45.465728759999998,9.1575403200000007
594, 610.000,210,4,117,2,R,,3,0,1900,Ottimo,Centralizzato,F,Milano,Città Studi,Via Carpaccio,45.479100000000003,9.2226999999999997
595, 430.000,183,4,140,2,5,5,,0,,Ristrutturare,Autonomo,F,Milano,Bisceglie,"Via Cividale del Friuli , 15",45.458199999999998,9.1001300000000001
596, 620.000,,3,115,2,T,,3,0,1900,Ottimo,Autonomo,G,De Angeli,,,45.467700000000001,9.1493000000000002
597, 279.000,,1,56,1,T,,7,0,1960,Ottimo,Centralizzato,G,Milano,Buenos Aires,"Corso Buenos Aires, 77",45.485199999999999,9.2155400000000007
598, 240.000,100,3,80,1,1,1,4,0,1960,Buono,Autonomo,F,,,,45.444600000000001,9.1419499999999996
599,"da  133.722,00",,4,102,1,1,1,,0,,Ristrutturare,,G,Milano,Tre Castelli - Faenza,"Via Giussani , 5",45.440280909999998,9.1373138399999991
600,"da  166.350,00",,4,121,2,5,5,,0,,Ristrutturare,,G,Milano,Tre Castelli - Faenza,"Via Giussani, 23",45.441009520000001,9.1392555200000007
601, 476.000,400,3,113,2,4,4,6,1,,Buono,Centralizzato,G,Milano,Navigli - Darsena,Viale Liguria,45.443899999999999,9.1718799999999998
602, 245.000,96,2,45,1,1,1,3,0,1900,Ottimo,Autonomo,A,Milano,Farini,Via Menabrea,45.495699999999999,9.1864100000000004
603, 473.000,400,3,104,2,5,5,6,1,,Buono,Centralizzato,G,Milano,Navigli - Darsena,Viale Liguria,45.443899999999999,9.1718799999999998
604, 170.000,100,2,50,1,T,,8,0,1970,Ottimo,Centralizzato,,Milano,Giambellino,Via Dei Tulipani,45.449199999999998,9.1379999999999999
605, 100.000,,4,140,1,9,9,9,0,,Ottimo,,,Milano,San Siro,Via Alfonso Capecelatro,45.470700000000001,9.1308000000000007
606, 468.000,400,3,118,2,2,2,6,1,,Buono,Centralizzato,G,Milano,Navigli - Darsena,Viale Liguria,45.443899999999999,9.1718799999999998
607, 470.000,167,3,92,1,3,3,6,0,1930,Ottimo,Centralizzato,E,Milano,Cenisio,"Via Mac Mahon, 40",45.491199999999999,9.1618399999999998
608, 449.000,400,3,113,2,2,2,6,1,,Buono,Centralizzato,G,Milano,Navigli - Darsena,Viale Liguria,45.443899999999999,9.1718799999999998
609,"da  109.200,00",,3,105,1,4,4,,0,,Ristrutturare,,G,Milano,Cimiano,"Via Tarabella, 5",45.495880130000003,9.2343463900000007
610, 448.000,400,3,104,2,5,5,6,1,,Buono,Centralizzato,G,Milano,Navigli - Darsena,Viale Liguria,45.443899999999999,9.1718799999999998
611,"da  97.059,00",,3,85,1,2,2,,0,,Ristrutturare,,G,Milano,Primaticcio,"Via Delle Genziane, 3",45.453151699999999,9.1275911300000008
612, 690.000,200,3,100,2,5,5,7,0,1950,Buono,Centralizzato,G,Milano,Ticinese,viale gian galeazzo milano,45.4527,9.1834399999999992
613, 550.000,250,4,115,2,7,7,8,0,1960,Ottimo,Centralizzato,D,Milano,Parco Trotter,"Via Leoncavallo , 1",45.490499999999997,9.2239299999999993
614, 359.000,100,2,70,1,1,1,5,0,2010,Buono,Autonomo,,Milano,Ripamonti,"Via Arcivescovo Calabiana, 10",45.4435,9.2087000000000003
615, 330.000,58,2,48,1,R,,1,0,1900,Ottimo,Autonomo,E,Milano,Ticinese,milano via scaldasole,45.454300000000003,9.1794600000000006
616, 380.000,,3,84,1,4,4,6,1,,Ottimo,Centralizzato,G,Milano,Navigli - Darsena,Viale Liguria,45.443899999999999,9.1718799999999998
617, 920.000,333,3,140,2,4,4,4,0,,Ottimo,Centralizzato,G,Milano,Vincenzo Monti,Via Giuseppe Revere,45.472099999999998,9.1693800000000003
618, 200.000,,2,58,1,2,2,8,0,1965,Ristrutturare,Centralizzato,G,Milano,Lorenteggio,"Via dei Fiordalisi, 3",45.450899999999997,9.1367999999999991
619,"da  91.125,00",,3,81,1,T,,,0,,Ristrutturare,,G,Milano,Roserio,"Via Val Trompia, 5",45.518268589999998,9.1303634599999999
620, 560.000,250,3,88,1,2,2,5,0,1930,Ottimo,Centralizzato,F,Milano,Piazza Napoli,Piazza Napoli,45.4529,9.1552000000000007
621,"da  101.794,00",,3,89,1,5,5,,0,,Ristrutturare,,G,Milano,Affori,"Via Litta Modignani, 109",45.521339419999997,9.1524200400000009
622,"da  129.000,00",,3,77,1,4,4,6,0,,Buono,Centralizzato,,Milano,Farini,"Viale Edoardo Jenner, 23",45.496990199999999,9.1815099700000005
623, 434.000,400,3,97,2,6,6,6,1,,Buono,Centralizzato,G,Milano,Navigli - Darsena,Viale Liguria,45.443899999999999,9.1718799999999998
624, 449.000,400,3,113,2,2,2,6,1,,Buono,Centralizzato,G,Milano,Navigli - Darsena,Viale Liguria,45.443899999999999,9.1718799999999998
625, 248.000,,2,53,1,3,3,4,0,1930,Buono,Autonomo,G,Centrale,,,45.487099999999998,9.2118000000000002
626,"da  115.163,00",,3,83,1,3,3,,0,,Ristrutturare,,G,Milano,Parco Trotter,"Via Bassano del Grappa, 32",45.494689940000001,9.2275409699999997
627, 594.000,400,3,134,2,6,6,6,1,,Buono,Centralizzato,G,Milano,Navigli - Darsena,Viale Liguria,45.443899999999999,9.1718799999999998
628, 454.000,400,3,118,2,1,1,6,1,,Buono,Centralizzato,G,Milano,Navigli - Darsena,Viale Liguria,45.443899999999999,9.1718799999999998
629, 496.000,400,3,118,2,4,4,6,1,,Buono,Centralizzato,G,Milano,Navigli - Darsena,Viale Liguria,45.443899999999999,9.1718799999999998
630,"da  1.050.000,00",,,"840 m², esterna 140",3,T,,3,0,,Ottimo,Centralizzato,G,Milano,Famagosta,"Via Imperia , 18",45.442050930000001,9.1729030599999994
631, 690.000,292,3,90,1,1,1,,0,1950,Buono,Centralizzato,D,Milano,Vincenzo Monti,Corso Magenta,45.465699999999998,9.1708300000000005
632,"da  64.260,00",,2,68,1,1,1,,0,,Ristrutturare,,G,Milano,Quarto Oggiaro,"Via arturo Graf, 32",45.512790680000002,9.1419544199999994
633, 940.000,300,2,75,1,5,5,,0,,Ottimo,,,Milano,San Babila,Via Borgogna,45.465800000000002,9.1993399999999994
634, 119.000,50,1,26,1,R,,4,0,1970,Buono,Centralizzato,F,Milano,Martini - Insubria,"Via Gressoney, 6",45.451500000000003,9.2192000000000007
635, 890.000,,,225,3+,8,8,,0,1960,Ottimo,Centralizzato,D,Milano,Parco Trotter,"Via Leoncavallo , 1",45.490499999999997,9.2239299999999993
636, 450.000,200,2,75,1,4,4,8,0,1970,Buono,Centralizzato,G,Milano,Monte Rosa - Lotto,"Via Guglielmo Silva, 35",45.478499999999997,9.1476000000000006
637, 278.000,100,2,55,1,R,,8,0,1960,Nuovo,Centralizzato,,Città Studi,,,45.483400000000003,9.2177000000000007
638, 555.000,200,2,82,1,1,1,6,1,,Buono,Autonomo,,Milano,Isola,Via Garigliano,45.488999999999997,9.1904000000000003
639, 135.000,100,2,45,1,T,,4,0,,Ottimo,Autonomo,G,Milano,San Siro,Via Daniele Ricciarelli,45.4711,9.1407900000000009
640, 650.000,200,3,110,2,2,2,5,0,1960,Ottimo,Centralizzato,E,Milano,Argonne - Corsica,Via Marciano,45.467199999999998,9.2314000000000007
641, 1.750.000,,,618,,,,,2,,Buono,Autonomo,G,Milano,Maggiolina,Piazza Carbonari,45.493000000000002,9.2007999999999992
642, 570.000,200,5,124,1,R,,,0,,Buono,Centralizzato,G,Milano,Montenero,Via Anfossi,45.460099999999997,9.2104800000000004
643, 800.000,,4,240,3,T,,,0,,Ottimo,,,Milano,San Siro,Newton,45.4739,9.1326400000000003
644, 585.000,,3,98,1,2,2,,0,,Ottimo,,,Milano,Sempione,Via Losanna,45.485900000000001,9.1635500000000008
645, 585.000,,2,98,1,2,2,,0,,Ottimo,,,Milano,Sempione,Via Losanna,45.485900000000001,9.1635500000000008
646,"da  77.775,00",,2,68,1,1,1,,0,,Ristrutturare,,G,Milano,Affori,"Via Litta Modignani, 103",45.521369929999999,9.1524982500000007
647, 320.000,,2,56,1,R,,,0,,Ottimo,Centralizzato,G,Milano,Montenero,Via Anfossi,45.460099999999997,9.2104800000000004
648, 1.100.000,,,200,3,4,4,11,0,2008,Ottimo,Centralizzato,,Portello - Parco Vittoria,,,45.490200000000002,9.1478000000000002
649, 660.000,117,3,85,,,1,2,0,2019,Nuovo,Autonomo,B,Milano,Sempione,Via Prati,45.4786,9.1614400000000007
650,"da  135.000,00",,5,140,2,4,4,6,0,,Buono,Centralizzato,,Milano,Roserio,"Via Longarone, 18",45.520099639999998,9.1418504699999996
651, 200.000,,2,113,2,T,,,0,1920,Ristrutturare,Autonomo,,Milano,Ca' Granda,"Viale Sarca, 73",45.507300000000001,9.2038600000000006
652,"da  52.500,00",,1,55,1,T,,,0,,Ristrutturare,,G,Milano,Rovereto,VIA ROGGIA SCAGNA,45.494010930000002,9.2208795499999994
653, 376.000,,3,120,2,S,,,0,1970,Ottimo,Centralizzato,,Milano,Bande Nere,Viale Legioni Romane,45.4604,9.1328099999999992
654, 320.000,,3,56,1,R,,,0,,Ottimo,Centralizzato,G,Milano,Montenero,Via Anfossi,45.460099999999997,9.2104800000000004
655, 152.000,150,2,50,1,,,,0,,Ottimo,Centralizzato,G,Milano,Ghisolfa - Mac Mahon,Via Mac Mahon,45.491500000000002,9.1610099999999992
656, 1.190.000,,,200,3+,3,3,6,0,,Ristrutturare,Centralizzato,,Milano,Indipendenza,via Ciro Menotti,45.470500000000001,9.2133099999999999
657, 399.000,,3,106,2,R,,,0,,Ottimo,Centralizzato,,Milano,Bande Nere,Viale Legioni Romane,45.4604,9.1328099999999992
658,"da  329.250,00",,3,125,2,1,1,5,0,,Buono,Centralizzato,,Milano,Washington,"Via Monferrato, 9",45.465751650000001,9.1575403200000007
659, 1.200.000,,4,185,3,1,1,6,0,,Ottimo,Centralizzato,,Milano,Indipendenza,via Ciro Menotti,45.470500000000001,9.2133099999999999
660, 423.000,,3,112,2,R,,,0,,Ottimo,Centralizzato,,Milano,Bande Nere,Viale Legioni Romane,45.4604,9.1328099999999992
661,"da  1.995.000,00",,5,217,3,6,6,,0,,Ristrutturare,,,Milano,San Babila,"CORSO MATTEOTTI, 11",45.466960909999997,9.1970701199999993
662, 205.000,,2,77,1,R,,6,1,1970,Ottimo,Centralizzato,,Milano,Rogoredo,Viale Omero,45.432099999999998,9.2243999999999993
663,"da  52.500,00",,2,56,1,T,,4,0,,Ristrutturare,Autonomo,,Milano,Rovereto,"Via Roggia Scagna, 10",45.494010930000002,9.2209701499999994
664, 359.000,300,3,110,,,5,6,0,,Buono,Centralizzato,G,Precotto,,,45.513100000000001,9.2214399999999994
665, 245.000,250,3,110,1,R,,6,0,1970,Buono,Centralizzato,,,,,45.458399999999997,9.1252099999999992
666, 139.000,50,2,55,1,R,,,0,,Ristrutturare,Autonomo,,Milano,Affori,Bovisasca,45.518900000000002,9.1561900000000005
667, 220.000,120,1,40,1,2,2,8,0,,Ottimo,Centralizzato,G,Tripoli - Soderini,,,45.459099999999999,9.1473999999999993
668,"da  70.656,00",,3,85,1,6,6,,0,,Ristrutturare,,G,Milano,Bisceglie,"Via Val Devero, 19",45.459129330000003,9.1108303100000008
669,"da  39.000,00",,1,29,1,2,2,9,0,,Ristrutturare,Centralizzato,,Milano,Barona,"Via Ambrogio Binda, 33",45.441329959999997,9.1550102199999994
670, 890.000,,4,194,3,,,,1,,Ottimo,Autonomo,,Milano,Cenisio,Via Cenisio,45.4876,9.1653300000000009
671,"da  79.500,00",,2,57,,R,,,0,,Ristrutturare,,,Milano,Bisceglie,"Via Delle Forze Armate , 249",45.460121149999999,9.1082038900000004
672,"da  187.500,00",,2,58,1,R,,,0,,Ristrutturare,,,Milano,San Vittore,"Via San Vittore , 39",45.463848110000001,9.1683902699999997
673, 750.000,,5,250,,,,3,0,,Ristrutturare,Autonomo,G,Milano,Bologna - Sulmona,Via Enrico Caviglia,45.442399999999999,9.2302
674,Prezzo su richiesta,,,400,3+,6,6,6,0,,Ristrutturare,Autonomo,G,Milano,Brera,Via dei Giardini,45.471499999999999,9.1928000000000001
675, 270.000,,2,50,1,2,2,4,0,,Ottimo,,G,Milano,Porta Romana - Medaglie d'Oro,Piazzale Lodi,45.447699999999998,9.2103999999999999
676, 395.000,100,2,50,1,2,2,4,0,,Buono,Autonomo,G,Milano,Moscova,"Via San Marco, 28",45.476799999999997,9.1888000000000005
677, 61.500,120,2,60,1,1,1,,0,,Ristrutturare,Centralizzato,G,Milano,San Siro,"Via Matteo Civitali, 4",45.469999999999999,9.1356999999999999
678,"da  329.000,00",,3,140,2,1,1,,0,,Ristrutturare,,,Milano,Washington,"Via Monferrato, 9",45.465690610000003,9.1576194799999993
679,"da  329.000,00",,3,140,2,1,1,,0,,Ristrutturare,,,Milano,Washington,"Via Monferrato, 9",45.465690610000003,9.1576194799999993
680, 345.000,,2,73,,,2,,0,,Ristrutturare,,,Milano,Paolo Sarpi,Via Aristotile Fioravanti,45.482799999999997,9.1768800000000006
681,"da  62.588,00",,2,55,1,,,,0,,Buono,Centralizzato,G,Milano,Certosa,VIA PRIVATA BATTISTA DE ROLANDI 13,45.496753689999998,9.1448078200000005
682, 271.100,200,1,49,1,1,1,2,0,,Ottimo,Autonomo,,Milano,Città Studi,Via Della Sila,45.484699999999997,9.2289100000000008
683, 955.000,167,3,107,1,5,5,5,0,,Ottimo,Autonomo,F,Carrobbio,,,45.461500000000001,9.1853999999999996
684, 334.000,,3,145,2,1,1,2,0,1960,Ristrutturare,Autonomo,F,,,,45.481999999999999,9.2410999999999994
685, 620.000,320,4,145,2,1,1,6,0,1960,Buono,Centralizzato,G,Milano,Monte Rosa - Lotto,Piazzale Fratelli Zavattari,45.476100000000002,9.1434999999999995
686, 325.000,,3,85,2,T,,,0,,Nuovo,Centralizzato,,Milano,Bande Nere,Viale Legioni Romane,45.460799999999999,9.1345799999999997
687,"da  63.750,00",,2,50,1,R,,7,0,,Ristrutturare,,,Milano,Certosa,"Via Pier Francesco Mola, 11",45.497779850000001,9.1433696700000002
688, 599.000,250,3,90,1,5,5,7,0,,Ottimo,Centralizzato,E,,,,45.493200000000002,9.1912199999999995
689, 39.000,95,1,29,1,2,2,,0,,Ristrutturare,Centralizzato,G,Milano,Barona,"Via Ambrogio Binda, 33",45.441299999999998,9.1549999999999994
690,"da  603.000,00",,,211,2,2,2,,0,,Ristrutturare,,,Milano,Bocconi,"Via Pietro Teuliè, 11",45.450630189999998,9.1864299799999998
691, 630.000,300,3,100,1,3,3,8,0,,Ottimo,Centralizzato,F,,,,45.454999999999998,9.1517599999999995
692, 260.000,100,2,55,1,1,1,,0,,Ristrutturare,,,Milano,Ca' Granda,Via Salvatore Pianell,45.507800000000003,9.2035999999999998
693, 375.000,200,3,112,1,7,7,,0,,Buono,Centralizzato,,Milano,Prato Centenaro,Viale Ca' Granda,45.5077,9.1949000000000005
694, 259.000,,,70,,,7,,0,,Ottimo,Autonomo,,Milano,Cimiano,Largo Tel Aviv,45.497900000000001,9.2344399999999993
695, 780.000,,3,136,2,R,,,0,,Ottimo,,,Milano,Morgagni,Piazzale Lavater,45.476300000000002,9.21157
696, 230.000,149,4,190,,,,,0,,Ristrutturare,,,Milano,Vialba,Via Carolina Invernizio,45.514000000000003,9.1352499999999992
697, 143.000,92,3,106,,,,,0,,Ristrutturare,,,Milano,Vialba,Via Carolina Invernizio,45.514000000000003,9.1352499999999992
698, 203.000,136,4,177,,,,,0,,Ristrutturare,,,Milano,Vialba,Via Carolina Invernizio,45.514000000000003,9.1352499999999992
699,Prezzo su richiesta,1,,405,3,,,5,1,,Ottimo,Autonomo,B,Milano,Piave - Tricolore,Tricolore,45.4679,9.20716
700, 970.000,,3,125,2,4,4,,0,,Ottimo,Autonomo,,Milano,Quadronno - Crocetta,Corso di Porta Romana,45.4559,9.1961200000000005
701,"da  48.750,00",,2,41,1,1,4,5,0,,Ristrutturare,,,Milano,Rovereto,"Via Termopili, 38",45.493640900000003,9.2201700199999994
702,"da  402.000,00",,2,135,2,5,5,,1,,Ristrutturare,Autonomo,,Milano,Navigli - Darsena,Alzaia Naviglio Pavese,45.446208949999999,9.1765403699999997
703, 625.000,,4,133,,,1,,0,,Ristrutturare,,,Milano,Paolo Sarpi,Via Aristotile Fioravanti,45.482799999999997,9.1768800000000006
704, 80.000,63,1,95,,,,,0,,Ristrutturare,,,Milano,Rogoredo,Via San Dionigi,45.424500000000002,9.2322699999999998
705,"da  329.250,00",,3,140,1,1,1,6,0,,Ristrutturare,,,Milano,Washington,"Via Monferrato, 9",45.465751650000001,9.1575403200000007
706, 1.950.000,667,,250,2,,,,0,,Ristrutturare,,,Milano,Palestro,Via Visconti di Modrone,45.465400000000002,9.2003500000000003
707,"da  98.625,00",,2,73,1,1,4,5,0,,Ristrutturare,,,Milano,Certosa,"Via Jacopino da Tradate, 8",45.49536896,9.1515998799999991
708, 599.000,,3,90,2,5,5,,0,,Ottimo,Centralizzato,,Milano,Farini,Viale Stelvio,45.493899999999996,9.1874400000000005
709, 460.000,200,2,80,1,1,1,,0,,Ristrutturare,Centralizzato,,Milano,Zara,Via Lario,45.493200000000002,9.1906599999999994
710, 369.000,,2,75,1,1,1,,0,,Ristrutturare,,,Milano,Solari,Via Savona,45.452500000000001,9.1586099999999995
711, 338.000,,2,65,1,1,1,,0,,Ristrutturare,,,Milano,Gorla,Viale Monza,45.504899999999999,9.2222500000000007
712, 240.000,75,3,85,2,1,1,4,0,,Buono,Autonomo,A,,,,45.503799999999998,9.2367000000000008
713,Prezzo su richiesta,,,350,3+,4,4,6,0,,Buono,,G,Milano,Palestro,Via Pietro Mascagni,45.466299999999997,9.2030999999999992
714,Prezzo su richiesta,,4,174,3,1,1,,0,,Ristrutturare,,E,Milano,Ticinese,Via Pietro Panzeri,45.453600000000002,9.1781799999999993
715,Prezzo su richiesta,,,250,3+,2,2,4,0,,Buono,Centralizzato,G,Milano,Palestro,Corso Venezia,45.468899999999998,9.1992999999999991
716,"da  39.000,00",,1,29,1,1,2,8,0,,Ristrutturare,,,Milano,Barona,"Via Ambrogio Binda, 33",45.441329959999997,9.1550102199999994
717, 140.000,85,2,55,1,T,,,0,,Ottimo,Autonomo,,Milano,Gorla,Viale Monza,45.504899999999999,9.2222500000000007
718, 110.000,,2,60,,,,,0,,Buono,Autonomo,G,Milano,Cermenate - Abbiategrasso,"CHIESA ROSSA , 33",45.433100000000003,9.1739200000000007
719,Prezzo su richiesta,,,325,2,3,3,5,0,,Ottimo,Centralizzato,F,Vincenzo Monti,,,45.466500000000003,9.1748999999999992
720,Prezzo su richiesta,,3,301,,,,,0,1900,Nuovo,Autonomo,D,Milano,Solari,solari,45.4544,9.1602800000000002
721, 385.000,,2,85,1,4,4,6,0,1930,Ristrutturare,Centralizzato,G,,,,45.480499999999999,9.2111999999999998
722, 270.000,,2,48,1,,,,0,,Ristrutturare,,,Milano,Navigli - Darsena,Navigli,45.447699999999998,9.1696299999999997
723,Prezzo su richiesta,,,630,,,6,6,2,,Ottimo,Autonomo,G,Milano,Scala - Manzoni,Via Bigli,45.468800000000002,9.1936
724, 289.000,190,3,90,1,1,1,,0,,Buono,Centralizzato,,Milano,Comasina,Via Comasina,45.527500000000003,9.1641700000000004
725, 279.000,,3,75,1,3,3,,0,,Ristrutturare,Autonomo,,Milano,Precotto,Via Val Di Non,45.509999999999998,9.2300900000000006
726,Prezzo su richiesta,,,550,,,3,4,2,,Buono,,G,Milano,Palestro,Corso Venezia,45.468899999999998,9.1992999999999991
727, 250.000,105,2,43,1,R,,,0,,Ottimo,Centralizzato,,Milano,Maggiolina,Via Adele Martignoni,45.494500000000002,9.1974599999999995
728, 159.000,,2,65,1,S,,,0,,Ottimo,,,Milano,Cimiano,Via Privata Giuba,45.5002,9.2376000000000005
729, 790.000,,5,234,2,,,,1,,Ristrutturare,Autonomo,,Milano,Famagosta,Via Eugenio Curiel,45.438800000000001,9.1607800000000008
730, 259.000,,,65,,,,,0,,Ottimo,,,Milano,Ripamonti,Via Antonio Pasinetti,45.436900000000001,9.1986399999999993
731, 450.000,,,78,,,1,,0,,Ristrutturare,,,Milano,Isola,Isola,45.487699999999997,9.1898099999999996
732, 4.000.000,,,370,3+,5,5,,1,,Ristrutturare,Centralizzato,G,Milano,Arco della Pace,Via Mario Pagano,45.4741,9.1699999999999999
733, 130.000,,3,55,1,1,1,,0,,Ottimo,,,Milano,Corvetto,Via Dei Cinquecento,45.435699999999997,9.22133
734,Prezzo su richiesta,,3,110,2,2,2,4,0,,Buono,,G,Milano,Cadorna - Castello,Piazza Castello,45.468499999999999,9.1795000000000009
735, 330.000,,2,46,1,R,,,0,,Buono,Autonomo,,Milano,Ticinese,Via Scaldasole,45.454300000000003,9.1794600000000006
736, 235.000,,2,47,1,3,3,,0,,Ristrutturare,,,Milano,Rovereto,Via Popoli Uniti,45.496000000000002,9.2177699999999998
737, 425.000,220,3,85,1,R,,4,0,,Ristrutturare,Centralizzato,,Plebisciti - Susa,,,45.463999999999999,9.2210000000000001
738,Prezzo su richiesta,,5,200,3,3,3,,0,,Ottimo,,G,Milano,Duomo,Via Cusani,45.468699999999998,9.1841000000000008
739, 219.000,,,45,,,1,,0,,Buono,Autonomo,,Milano,Città Studi,Via Pellegrino Strobel,45.473799999999997,9.2323799999999991
740,Prezzo su richiesta,,,450,3+,4,4,6,0,,Ristrutturare,,G,Milano,Palestro,Corso Monforte,45.467100000000002,9.2018000000000004
741, 148.000,,2,50,1,2,2,,0,,Ristrutturare,Autonomo,,Milano,Cimiano,Via Padova 131,45.502699999999997,9.2385900000000003
742, 109.000,,,40,,,,,0,,Buono,Autonomo,,Milano,Gorla,Viale Monza,45.504899999999999,9.2222500000000007
743, 185.000,,2,40,1,,,,0,,Ottimo,Centralizzato,,Milano,Affori,Via Privata Cesare Vignati,45.511800000000001,9.1786100000000008
744, 450.000,,4,130,2,T,,,0,,Ristrutturare,Autonomo,,Milano,Monte Rosa - Lotto,Viale Giovanni Migliara,45.477499999999999,9.1430299999999995
745, 1.100.000,360,4,150,2,5,5,6,1,1900,Ottimo,Centralizzato,,Milano,Dezza,Viale Coni Zugna,45.459600000000002,9.1656999999999993
746, 130.000,,3,75,1,T,,,0,,Buono,Autonomo,,Milano,Santa Giulia,Via Busseto,45.426699999999997,9.2505799999999994
747,"da  33.750,00",,1,16,1,1,5,5,0,,Ristrutturare,,,Milano,Bocconi,"Viale Bligny, 42",45.450809479999997,9.1922101999999999
748, 117.000,100,,35,,,4,,0,,Buono,Centralizzato,,Milano,Pasteur,Via Luigi Pasteur,45.489600000000003,9.2200900000000008
749, 250.000,,,65,,,,,0,,Ottimo,,,Milano,Monte Rosa - Lotto,Viale Giovanni Migliara,45.477499999999999,9.1430299999999995
750, 415.000,,3,117,2,3,3,,1,,Ristrutturare,Autonomo,,Milano,Tre Castelli - Faenza,Via Fernando Santi,45.437100000000001,9.1231899999999992
751, 400.000,,,85,,,3,,0,,Ottimo,Autonomo,,Milano,Maggiolina,Viale Nazario Sauro,45.492100000000001,9.1951099999999997
752, 125.000,60,,45,,,2,,0,,Ristrutturare,Autonomo,,Milano,Parco Trotter,Via Fanfulla Da Lodi,45.492800000000003,9.22546
753, 115.000,,,55,,,1,,0,,Buono,Autonomo,,Milano,Villa San Giovanni,Via Fortezza,45.521000000000001,9.2236999999999991
754, 375.000,200,3,112,1,7,7,7,0,1960,Buono,Centralizzato,,,,,45.507800000000003,9.1952999999999996
755, 210.000,,,55,,,2,,0,,Ottimo,Autonomo,,Milano,Ghisolfa - Mac Mahon,Via Monte Generoso,45.492899999999999,9.1546800000000008
756,"da  135.000,00",,,139,,,,,0,,Ristrutturare,,,Milano,Roserio,"Via Longarone, 18/4",45.520030980000001,9.1419649100000004
757,"da  325.000,00",,,120,,,,,0,,Ristrutturare,,,Milano,Città Studi,"via Giovanni Paisiello, 1",45.481479640000003,9.2176103600000001
758, 109.000,,,28,,,4,,0,,Ottimo,Autonomo,,Milano,Rovereto,Via Martiri Oscuri,45.494900000000001,9.21706
759,Prezzo su richiesta,230,,130,,,2,,0,,Buono,Autonomo,,Milano,Turro,Via Privata Grado,45.500700000000002,9.2196099999999994
760,"da  63.750,00",,2,50,,,,,0,,Ristrutturare,,,Milano,Certosa,"Pier Francesco Mola, 11",45.497810360000003,9.1433610900000009
761, 330.000,150,,72,,,1,,0,,Ristrutturare,Centralizzato,,Milano,Maggiolina,Maggiolina,45.496200000000002,9.2013300000000005
762, 230.000,,,70,,,,,0,,Ottimo,,,Milano,Isola,Via Ercole Oldofredi,45.491300000000003,9.1972400000000007
763, 350.000,,,100,,,3,,1,,Ristrutturare,Centralizzato,,Milano,Istria,Via Laurana,45.499299999999998,9.1965400000000006
764, 202.000,,,60,,,2,,1,,Ristrutturare,Autonomo,,Milano,Vialba,Via Piero Montagnani Marelli,45.5152,9.1427499999999995
